,project_id,latitude,longitude,township,state,area,median_psf,median_price,poi_nearby_education,poi_nearby_transportation,poi_nearby_healthcare,nearest_school,nearest_train_station,nearest_hospital,total_poi_nearby,nearest_poi,transaction_count
1,28054,1.8508385,103.0985005,Taman Melewar 2,Johor,Parit Raja,32.5,140000.0,7,0,3,698.8775850843402,118249.24627802796,16451.84258863292,10,698.8775850843402,4
3,19000,2.4241923,103.8370822,Taman Mersing,Johor,Mersing,92.5,290000.0,10,0,2,583.0354757631494,179112.69347261894,1101.4398878080094,12,583.0354757631494,4
4,19009,2.50248,102.83199,"Taman Mewah, Sungai Segamat",Johor,Segamat,56.0,160000.0,16,0,4,479.4420359132914,67412.61044467475,1880.3703542049684,20,479.4420359132914,4
5,19036,1.9895953,102.8732944,"Taman Mutiara, Parit Sulong",Johor,Parit Sulong,122.5,324400.0,7,0,2,642.1696324760908,88940.53741628642,15543.042647645227,9,642.1696324760908,4
9,28046,2.1098055,103.3962741,Taman Perdana,Johor,Kluang,102.0,235000.0,4,0,1,377.4034138460309,135795.96194713892,10312.273554075968,5,377.4034138460309,4
10,19102,1.8499264,102.9497359,"Taman Perdana, Batu Pahat",Johor,Batu Pahat,143.0,220000.0,25,0,5,124.49546604492888,105176.62986162062,1265.4807974788814,30,124.49546604492888,3
11,19108,2.5377096,102.831385,Taman Permai 3,Johor,Segamat,142.0,110000.0,5,0,3,830.9588157828009,67706.87256413713,4015.2888973443996,8,830.9588157828009,4
12,19111,2.5346292,102.8305106,"Taman Permai, Segamat",Johor,Segamat,117.0,210000.0,8,0,3,554.1340163211429,67569.82029296363,3667.588157698333,11,554.1340163211429,4
13,19137,1.49598,103.75989,Taman PKEINJ,Johor,Johor Bahru,172.5,300000.0,39,0,9,251.70321214114728,201295.96308843873,1753.2600583241372,48,251.70321214114728,4
15,28109,1.6837751,103.1579509,"Taman Ria, Rengit",Johor,Rengit,132.5,375000.0,5,0,0,814.8702951220795,134733.82651774312,29548.03135871684,5,814.8702951220795,4
16,19194,2.38381,102.91729,"Taman Ros (Taman Pahlawan), Labis",Johor,Labis,137.0,225000.0,2,0,1,70.68440995252175,77264.91775685815,17573.886763772498,3,70.68440995252175,4
17,19211,0.0,0.0,Taman Santalia,Johor,Batu Pahat,124.0,209000.0,0,0,0,11148747.749698918,11166712.337270323,11152764.067977523,0,11148747.749698918,4
20,19229,2.4560565,102.9787756,"Taman Segar, Labis",Johor,Labis,77.5,125000.0,4,0,2,2396.045933529375,83603.40288686691,18975.806773471733,6,2396.045933529375,4
21,19230,1.8557763,102.9322883,Taman Sejahtera,Johor,Batu Pahat,154.0,180000.0,25,0,7,623.9620049903509,103278.74959521253,1127.3288089589971,32,623.9620049903509,4
22,19231,2.400809,103.0149391,Taman Sejati,Johor,Labis,91.5,200000.0,7,0,1,846.4058818770428,87895.41377157897,25024.784700354463,8,846.4058818770428,4
23,28171,1.4955148,103.4173617,Taman Selesa Jaya,Johor,Pontian,141.5,242500.0,7,0,2,734.1344226532638,170254.89643793972,3508.8390426209075,9,734.1344226532638,4
24,12899,2.006609917,103.0670013,Taman Sembrong,Johor,Yong Peng,80.5,175000.0,9,0,1,883.6571904471898,106201.00237993353,20609.072320612824,10,883.6571904471898,4
26,19258,0.0,0.0,Taman Seri Bayu,Johor,Simpang Renggam,148.0,357500.0,0,0,0,11148747.749698918,11166712.337270323,11152764.067977523,0,11148747.749698918,4
28,19285,2.5037697,102.8223478,Taman Sia Her Yam,Johor,Segamat,68.0,112500.0,14,0,5,607.0935825428811,66351.93267730135,799.6103813487615,19,607.0935825428811,4
29,19301,2.39638,103.02017,Taman Soon Cheong,Johor,Labis,72.0,140000.0,7,0,1,249.1949771628073,88515.1435974765,25767.438727535453,8,249.1949771628073,4
30,19305,2.0219161,103.0681081,Taman Sri Aman II,Johor,Yong Peng,112.5,206500.0,9,0,1,803.3622867127909,105515.45482038049,22026.78805091514,10,803.3622867127909,4
35,23589,0.0,0.0,Taman Sri Setongkat,Johor,Muar,103.5,208500.0,0,0,0,11148747.749698918,11166712.337270323,11152764.067977523,0,11148747.749698918,4
37,19441,2.0776745,102.5821114,"Taman Suria, Muar",Johor,Muar,84.5,170000.0,12,0,4,450.001298585816,58117.24564352367,2353.6849464291936,16,450.001298585816,4
39,13159,2.022690058,103.314003,Taman Tasik,Johor,Kluang,152.0,627500.0,27,0,6,572.053652682619,130348.7684111223,1271.6200932495121,33,572.053652682619,4
41,19501,1.8652963,102.9335666,Taman Usaha Jaya,Johor,Batu Pahat,70.0,315000.0,25,0,6,1093.2908134438624,102705.73967719774,1481.3816688256763,31,1093.2908134438624,4
44,8561,1.501430035,103.7659988,1Tebrau (One Tebrau Residence),Johor,Johor Bahru,569.0,355000.0,26,0,9,424.7110290713268,201553.1399118959,2157.6825391283246,35,424.7110290713268,3
45,8620,1.4270043,103.634692,Afiniti,Johor,Iskandar Puteri (Nusajaya),796.0,600000.0,9,0,2,890.7752262433013,194047.39038734656,78.79135460315302,11,78.79135460315302,3
46,24074,1.491047,103.8860917,Bandar Alam Masai,Johor,Masai,260.0,729800.0,20,0,3,156.23501915968163,213594.75509775028,1892.0257160767894,23,156.23501915968163,3
47,15432,1.5979563,103.639249,Bukit Senang Court,Johor,Senai,208.0,240000.0,6,0,1,380.14816790201434,183946.36619255296,4922.462519282209,7,380.14816790201434,3
49,24848,1.4637104,103.7262429,Country Garden @ Danga Bay,Johor,Johor Bahru,693.0,1030000.0,13,0,3,798.1790044298051,200084.8835078339,2148.7530176267437,16,798.1790044298051,3
50,24073,1.4914873,103.9307002,Eco Tropics,Johor,Pasir Gudang,220.0,539960.0,11,0,0,511.878955738882,217873.37806382883,3554.704207446845,11,511.878955738882,3
51,24048,1.4906535,103.7257035,Epic,Johor,Johor Bahru,601.0,724000.0,29,0,6,360.80029610967335,198403.1817223258,1813.5155290366504,35,360.80029610967335,3
52,27992,1.7527179,103.8898184,Jalan Lombong,Johor,Kota Tinggi,12.0,80000.0,10,0,2,1097.246946084382,200964.34006921356,2124.4158452361635,12,1097.246946084382,3
53,18359,1.69917,103.48528,Kampung Baru Ayer Bemban,Johor,Kulai,15.0,110000.0,2,0,1,77.7740202882097,163493.36504163558,16656.818143061842,3,77.7740202882097,3
55,28015,1.8127213,103.4773572,Kampung Baru Layang-Layang,Johor,Layang Layang,39.0,90000.0,4,0,2,406.80155797200524,156584.299464691,25086.396855008483,6,406.80155797200524,3
56,18375,0.0,0.0,Kampung Baru Renggam,Johor,Rengam,55.0,60000.0,0,0,0,11148747.749698918,11166712.337270323,11152764.067977523,0,11148747.749698918,3
57,28016,2.7007349,102.6831278,Kampung Baru Simpang Renggam,Johor,Batu Pahat,35.0,130000.0,3,0,1,353.0533647583397,57106.69894566632,26144.43239926881,4,353.0533647583397,3
59,18410,1.4964405,103.756198,Kampung Kurnia,Johor,Johor Bahru,61.0,400000.0,37,0,9,646.8793878252757,200921.00649534428,1702.7196799520666,46,646.8793878252757,3
61,22884,1.472141,103.87861,Kampung Pasir Gudang Baru,Johor,Masai,17.0,99249.0,12,0,4,1543.9184370063945,213940.12462524802,1986.9729987729515,16,1543.9184370063945,3
62,18471,1.5292224,103.6992587,Kempas Banjaran,Johor,Johor Bahru,84.0,485000.0,20,0,3,947.5353002042332,193627.79223256238,2936.9935076316697,23,947.5353002042332,3
64,10287,1.426100016,103.6080017,Ledang Heights,Johor,Ledang Heights,216.0,2500000.0,7,0,0,643.0708865470257,191718.86109785223,3050.649417049502,7,643.0708865470257,3
65,14507,1.499345,103.821917,"Mon Glori, , Bandar Baru Permas Jaya",Johor,Permas Jaya/Senibong,276.0,235000.0,16,0,2,175.25608257099384,206982.23408871877,4729.945216959733,18,175.25608257099384,3
66,18731,1.5496831,103.7328015,Pangsapuri Palma @ Nasa City Desa Palma,Johor,Johor Bahru,596.0,767800.0,11,0,1,905.8130175573192,195615.51314213098,3215.4196260282283,12,905.8130175573192,3
67,18507,2.0430463,102.5811428,Pangsapuri Permata,Johor,Kulai,170.0,168000.0,30,0,8,452.59796339229575,60912.73700761873,1712.4938963951067,38,452.59796339229575,3
68,24054,1.4904105,103.8304717,Pangsapuri Pinggiran Air,Johor,Masai,539.0,650000.0,17,0,1,663.648615012934,208307.50028205456,6091.420707492212,18,663.648615012934,3
71,28101,1.4602474,103.9087984,Perumahan Bakti,Johor,Pasir Gudang,177.0,170000.0,10,0,4,106.13434126157496,217499.54564438568,1051.707852889383,14,106.13434126157496,3
72,16109,1.475523904,103.7685299,Plaza Mentari Apartment (Sun City),Johor,Johor Bahru,315.0,580000.0,36,0,5,360.34716689077993,203317.82739685578,800.9220367215238,41,360.34716689077993,3
73,18532,1.4649018,103.7721847,Puteri Indah Court,Johor,Batu Pahat,298.0,425000.0,22,0,5,963.1590265963325,204293.62983707184,1413.7053591065267,27,963.1590265963325,3
74,29154,2.304256,102.5985792,Sagil,Johor,Tangkak,159.0,245000.0,3,0,2,1098.2080102857963,44904.39776670811,6748.396113642101,5,1098.2080102857963,3
75,17205,1.4777853,103.6586453,Sky Breeze,Johor,Johor Bahru,533.0,700000.0,11,0,2,834.3750099915634,192976.9828289154,1660.4927020863545,13,834.3750099915634,3
76,16329,1.5096756,103.6823157,Sri Wangi Apartment,Johor,Tampoi,290.0,300000.0,22,0,2,737.8890653619758,193207.89224175742,3037.6639486247864,24,737.8890653619758,3
79,23539,0.0,0.0,"Taman Bakariah Indah, Muar",Johor,Muar,161.0,280000.0,0,0,0,11148747.749698918,11166712.337270323,11152764.067977523,0,11148747.749698918,3
85,18623,1.71605,103.08861,"Taman Bestari, Senggarang",Johor,Senggarang,110.0,170000.0,2,0,1,1237.5336897432467,126540.2080193446,21227.005831318813,3,1237.5336897432467,3
87,28146,2.4798892,102.8533199,"Taman Bukit Indah 3, Pogoh",Johor,Segamat,187.0,430000.0,11,0,1,418.5011633078441,69670.2161709719,5070.73305092636,12,418.5011633078441,3
89,12122,1.4956887,103.8597537,Taman Bukit Rinting,Johor,Masai,149.0,1400000.0,20,0,1,286.0069757088468,210806.7969326391,4512.325535037301,21,286.0069757088468,3
91,23576,0.0,0.0,Taman Bunga Cempaka,Johor,Tangkak,103.0,80000.0,0,0,0,11148747.749698918,11166712.337270323,11152764.067977523,0,11148747.749698918,3
92,12157,1.867443,102.9724397,Taman Cempaka Putih,Johor,Batu Pahat,195.0,300000.0,10,0,2,656.3944758097409,105903.19048393508,2480.2301143981604,12,656.3944758097409,3
94,18696,2.48693,102.85379,"Taman Damai Jaya, Pagoh",Johor,Pagoh,122.0,183000.0,11,0,2,573.897190218702,69747.1227296639,4733.422447622862,13,573.897190218702,3
96,23525,1.840319,102.929644,"Taman Delima, Batu Pahat",Johor,Batu Pahat,288.0,565000.0,21,0,6,518.8489078944585,104178.0006663349,1224.5911621818693,27,518.8489078944585,3
99,18765,0.0,0.0,Taman Era,Johor,Simpang Renggam,195.0,400000.0,0,0,0,11148747.749698918,11166712.337270323,11152764.067977523,0,11148747.749698918,3
101,12687,1.496719956,103.9029999,Taman Nusa Damai,Johor,Pasir Gudang,176.0,292500.0,21,0,3,437.12979203381576,214909.36415807548,2269.430971526425,24,437.12979203381576,132
102,23908,2.5274938,102.8041432,Taman Tasik Sejati,Johor,Segamat,133.0,225500.0,12,0,4,825.8351170340629,64567.01564933607,2759.8170311397716,16,825.8351170340629,126
103,24623,1.8462884,103.6198597,Taman Anggerik Tenggara,Johor,Kulai,104.0,150000.0,6,0,2,942.4413453093558,169288.7575298199,22900.892684923496,8,942.4413453093558,123
105,16689,1.8611707,103.0057528,Taman Mutiara Perdana,Johor,Batu Pahat,237.0,430000.0,7,0,2,814.0470827988232,109250.27355255927,6091.876468295122,9,814.0470827988232,125
106,12685,1.480631,103.6664973,Taman Nusa Bestari 1,Johor,Johor Bahru,355.0,500000.0,11,0,1,623.4253592071549,193521.59804674267,1589.1452005772464,12,623.4253592071549,122
107,19146,1.8517206,103.0225954,Taman Pura Kencana,Johor,Seri Gading,239.0,470000.0,6,0,1,159.03207382849757,111373.18752115504,8035.925548431168,7,159.03207382849757,128
108,28188,1.9995844,103.3136367,Taman Setia Mutiara,Johor,Kluang,198.0,342000.0,14,0,2,1144.5525469463803,131288.44385076518,3562.4240056566077,16,1144.5525469463803,123
113,18828,0.0,0.0,Taman Industri Jaya,Johor,Skudai,103.0,80000.0,0,0,0,11148747.749698918,11166712.337270323,11152764.067977523,0,11148747.749698918,3
116,18876,2.4830228,102.8533231,"Taman Kekwa, Pagoh",Johor,Pagoh,97.0,150000.0,11,0,1,282.8693705789695,69680.4742678217,4888.333168347376,12,282.8693705789695,3
117,24033,0.0,0.0,Taman Kiara,Johor,Paloh,92.0,315000.0,0,0,0,11148747.749698918,11166712.337270323,11152764.067977523,0,11148747.749698918,3
118,18897,2.05148,102.57547,Taman Kim Kee,Johor,Muar,27.0,30000.0,34,0,6,126.31653007215196,59793.38349677225,639.8554318842802,40,126.31653007215196,3
129,23492,0.0,0.0,Taman Medan Bunga Cempaka Baru,Johor,Muar,53.0,40000.0,0,0,0,11148747.749698918,11166712.337270323,11152764.067977523,0,11148747.749698918,3
131,29153,2.3013541,102.6127238,Taman Mesra Rakyat,Johor,Tangkak,130.0,250000.0,4,0,2,600.0273739663364,46478.76014800382,7987.432814365042,6,600.0273739663364,3
132,19015,0.0,0.0,Taman Midori,Johor,Simpang Renggam,64.0,50000.0,0,0,0,11148747.749698918,11166712.337270323,11152764.067977523,0,11148747.749698918,3
134,16701,0.0,0.0,Taman Mutiara Indah,Johor,Pontian,105.0,340000.0,0,0,0,11148747.749698918,11166712.337270323,11152764.067977523,0,11148747.749698918,3
135,16720,0.0,0.0,Taman Mutiara Jaya,Johor,Pontian,90.0,220000.0,0,0,0,11148747.749698918,11166712.337270323,11152764.067977523,0,11148747.749698918,2
136,19035,2.0589799,102.5901486,"Taman Mutiara, Bandar Maharani",Johor,Muar,209.0,400000.0,27,0,4,586.3145066408979,60246.20126321489,1740.9140354555955,31,586.3145066408979,3
138,19055,1.87139,102.97784,"Taman Orkid, Batu Pahat",Johor,Batu Pahat,109.0,80000.0,7,0,1,140.08120389639973,106104.30160292797,3187.857341113474,8,140.08120389639973,3
139,19072,2.39275,103.86525,"Taman Pantai, Mersing",Johor,Mersing,118.0,155000.0,2,0,0,818.4503428238248,182362.31641730672,4569.889294892258,2,818.4503428238248,3
143,19112,1.5068281,103.8165427,Taman Permas Indah,Johor,Permas Jaya/Senibong,299.0,1800000.0,14,0,2,355.6662740785619,206043.6757495696,3708.9952015512786,16,355.6662740785619,3
147,19181,1.875717,102.964458,"Taman Ria, Batu Pahat",Johor,Batu Pahat,139.0,190000.0,16,0,4,1030.1621424572163,104638.82380324812,2187.101452766684,20,1030.1621424572163,3
148,28106,1.735415,103.9046581,"Taman Ria, Kota Tinggi",Johor,Kota Tinggi,146.0,225000.0,15,0,2,805.5669892089509,203235.76375411777,589.9448978595733,17,589.9448978595733,3
150,19240,1.88482,103.15274,Taman Semarang,Johor,Parit Raja,60.0,50000.0,4,0,1,234.9589224623584,121218.72945718837,22595.843557785174,5,234.9589224623584,3
151,28187,2.0558752,103.3454712,Taman Seri Makmur,Johor,Kluang,150.0,417000.0,8,0,3,340.99372732849696,132306.50963883824,2102.4649076855458,11,340.99372732849696,3
152,29250,2.0314075,102.5853683,Taman Siantan Megah,Johor,Muar,94.0,327000.0,26,0,5,983.9009947147209,62200.33547928919,2065.374947116173,31,983.9009947147209,3
154,19291,1.83077,103.30464,Taman Simpang Renggam,Johor,Simpang Renggam,112.0,175000.0,5,0,3,680.8157821148332,138780.5615801423,21990.45951570275,8,680.8157821148332,3
156,19303,2.558207,102.7362164,Taman Sri Alam II,Johor,Batu Anam,162.0,250000.0,2,0,0,2243.8275706407235,57584.878853109505,10569.169482254816,2,2243.8275706407235,3
158,11570,1.8898267,102.9494251,Taman Sri Idaman,Johor,Batu Pahat,155.0,255000.0,7,0,4,1134.2682698050626,102359.12132183713,3159.21620026843,11,1134.2682698050626,3
165,28111,1.6006941,103.8208575,Taman Sri Tiram,Johor,Ulu Tiram,115.0,170000.0,7,0,1,229.37586785563954,201332.04859612152,6517.946000550901,8,229.37586785563954,3
166,19411,2.00502,103.07912,"Taman Sri Wangi, Yong Peng",Johor,Yong Peng,110.0,140000.0,8,0,1,1415.7271651732492,107471.61841364497,21347.947118025546,9,1415.7271651732492,3
170,19467,2.508122,102.8353218,"Taman Tasik, Segamat",Johor,Segamat,81.0,140000.0,18,0,4,223.4953505318785,67824.98648268552,2250.0180298625487,22,223.4953505318785,3
175,23537,0.0,0.0,"Taman Wawasan, Muar",Johor,Muar,97.0,310250.0,0,0,0,11148747.749698918,11166712.337270323,11152764.067977523,0,11148747.749698918,3
177,23893,1.3949716,103.6385495,Avira Garden Terraces @ Medini,Johor,Iskandar Puteri (Nusajaya),523.5,1485500.0,4,0,0,295.8801210394519,196503.707669853,3479.652276125279,4,295.8801210394519,2
181,23959,1.8426485,102.9413086,Desa Garden (D' Garden),Johor,Batu Pahat,369.0,633850.0,23,0,6,335.47207601396775,104986.30719645237,719.2702936187516,29,335.47207601396775,2
182,15648,1.4261013,103.6388987,Grand Medini,Johor,Iskandar Puteri (Nusajaya),876.0,500000.0,9,0,2,447.4300935718212,194484.17990450308,367.75352569674936,11,367.75352569674936,2
183,29145,1.8525639,102.9370468,Jalan Dato Haji Hassan,Johor,Batu Pahat,60.0,225000.0,27,0,7,735.939880307436,103911.94241782681,1736.9510273675737,34,735.939880307436,2
184,29170,2.1009035,102.4973059,Jalan Kesang Laut,Johor,Muar,45.0,330000.0,3,0,0,2070.600546491281,50091.15774821113,9737.391209866051,3,2070.600546491281,2
189,29152,0.0,0.0,Kampung Baru Chamek,Johor,Kluang,28.5,120000.0,0,0,0,11148747.749698918,11166712.337270323,11152764.067977523,0,11148747.749698918,2
190,18364,2.212087,103.54209,Kampung Baru Kahang,Johor,Bekok,68.5,217500.0,3,0,1,264.81493163180215,148877.32464287124,29921.539986758566,4,264.81493163180215,2
193,28019,2.0281976,103.3489864,Kampung Gunung Lambak,Johor,Kluang,16.5,71000.0,12,0,5,1371.4357443550546,133745.49038314994,1868.3013563243057,17,1371.4357443550546,2
197,18416,1.4475389,103.5837129,Kampung Melayu Gelang Patah,Johor,Gelang Patah,20.5,140000.0,8,0,1,556.3694130406093,188134.84903819897,6184.105156518426,9,556.3694130406093,2
200,18494,1.5066525,103.8685847,Octville Condominium,Johor,Masai,368.0,525000.0,21,0,1,206.72946958544463,211043.1700198427,4463.513898409669,22,206.72946958544463,2
201,28176,1.5086911,103.717741,Pangsapuri Dwi Alif,Johor,Johor Bahru,251.0,264100.0,25,0,4,962.9658456920237,196580.53551652477,1638.1969997345843,29,962.9658456920237,2
202,16277,1.471062,103.762499,Pangsapuri Seri Kencana Setia (SKS Pavillion Residences),Johor,Johor Bahru,753.5,559625.0,39,0,7,496.5086194668318,203018.61624569507,690.0360339921211,46,496.5086194668318,2
204,16067,1.468477,103.77047,Paragon Suites,Johor,Johor Bahru,553.0,500000.0,26,0,6,541.1511911438215,203919.47375155392,1261.5466964234936,32,541.1511911438215,2
205,28006,2.0229837,102.5704114,Parit Peropok,Johor,Muar,96.5,357500.0,24,0,3,1119.6580069620406,61878.02117762583,1448.091937290351,27,1119.6580069620406,2
206,18530,1.5050896,103.6199192,Perumahan Rakyat Lima Kedai,Johor,Skudai,100.5,70000.0,11,0,1,267.6299705267725,187715.41197657536,3139.869391924525,12,267.6299705267725,2
207,16182,1.65072,103.606733,Rumah Pangsa Kulai,Johor,Kulai,75.0,41000.0,16,0,3,320.7240558024668,177847.02155123855,2177.135197611507,19,320.7240558024668,2
210,13183,1.571709991,103.6110001,Taman Teratai,Johor,Skudai,179.0,240000.0,5,0,1,771.1720713301073,182819.28378944055,4294.288920416907,6,771.1720713301073,114
211,18917,2.02047,103.0805726,Taman Kota Impian,Johor,Yong Peng,259.0,350000.0,8,0,0,950.6465374038368,106819.87092155087,22750.477814113357,8,950.6465374038368,116
212,28160,1.5918473,103.7639022,Taman Eco Flora,Johor,Johor Bahru,436.0,735000.0,2,0,0,2556.853634987679,196253.89437083635,4511.851883372766,2,2556.853634987679,113
213,28052,1.8654133,102.9885392,Taman Mutiara Gading,Johor,Batu Pahat,342.0,479450.0,6,0,1,685.9524599237562,107449.06581060798,4201.341816538588,7,685.9524599237562,114
214,13136,1.480540037,103.6910019,Taman Sutera,Johor,Johor Bahru,281.0,600000.0,15,0,1,412.113180390555,195789.066148931,3820.9447890060474,16,412.113180390555,101
215,12103,1.518939972,103.689003,Taman Bukit Mewah,Johor,Johor Bahru,299.5,380000.0,23,0,3,178.3504453652831,193275.9830411836,2922.880901321276,26,178.3504453652831,112
216,19299,1.8382055,102.9314751,Taman Soga,Johor,Batu Pahat,138.0,125000.0,19,0,5,582.0465336726163,104485.3851198174,960.7653913218566,24,582.0465336726163,109
217,24543,1.5949767,103.7333949,Austin Duta,Johor,Johor Bahru,401.0,741000.0,1,0,1,2358.693718596686,193132.05318384737,7008.064785773921,2,2358.693718596686,114
218,18659,1.540637,103.7424154,Taman Bukit Mutiara,Johor,Johor Bahru,181.0,270000.0,10,0,2,116.67555800072203,197048.57651039568,2875.548762040514,12,116.67555800072203,24
220,18577,2.651528,103.6262063,"Taman Bahagia, Endau",Johor,Endau,67.5,70000.0,6,0,2,120.49646757338802,156979.57018158893,34652.270602819626,8,120.49646757338802,2
222,29161,2.0201104,103.2928907,Taman Berlian Biru 2,Johor,Kluang,153.0,393800.0,18,0,2,533.3955935941613,128282.36233995341,2928.4157128906068,20,533.3955935941613,2
226,18711,1.443041,103.5929024,Taman Dato Syed Mohd Edros,Johor,Gelang Patah,129.0,285000.0,11,0,1,734.3260029199893,189252.21730111673,5051.015862911812,12,734.3260029199893,2
230,18785,2.490796,102.846157,Taman Genuang Perdana,Johor,Segamat,164.5,560000.0,14,0,3,319.1763108026107,68916.24793352249,3783.343686601442,17,319.1763108026107,2
235,18821,2.2327975,103.0423028,"Taman Indah, Chaah",Johor,Chaah,146.0,225000.0,5,0,1,222.57450267399702,94186.47770990906,36960.52582285362,6,222.57450267399702,2
236,18824,2.48766,102.85152,"Taman Indah, Pagoh",Johor,Segamat,136.5,342500.0,12,0,2,554.2734387047227,69497.90232716661,4470.796356351056,14,554.2734387047227,2
242,18880,2.2540174,103.0447987,"Taman Kemakmuran, Chaah",Johor,Chaah,90.5,140000.0,5,0,1,214.096202482591,93847.13246684699,37722.745708373695,6,214.096202482591,2
245,23599,0.0,0.0,Taman Khadri Sabran,Johor,Mersing,120.5,284000.0,0,0,0,11148747.749698918,11166712.337270323,11152764.067977523,0,11148747.749698918,2
248,18933,2.39932,103.01704,Taman Labis,Johor,Labis,87.0,225000.0,7,0,1,590.3130758195132,88141.46478268348,25308.08731514515,8,590.3130758195132,2
250,29149,2.0176004,102.5727136,Taman Lembah Padang 2,Johor,Muar,101.0,275000.0,15,0,2,928.4776765951829,62504.704311522175,2090.030122580686,17,928.4776765951829,2
252,23584,0.0,0.0,Taman Lundang Jaya,Johor,Batu Pahat,179.0,329300.0,0,0,0,11148747.749698918,11166712.337270323,11152764.067977523,0,11148747.749698918,2
254,18957,1.8368956,102.9294305,"Taman Maju, Batu Pahat",Johor,Batu Pahat,54.5,60000.0,20,0,5,815.9231950962809,104410.98446269856,1166.7249721358883,25,815.9231950962809,2
256,23913,2.5067836,102.8318618,Taman Mega Jaya,Johor,Segamat,94.0,117500.0,16,0,4,322.1758581312566,67430.53492469437,1850.2048044856267,20,322.1758581312566,2
257,18998,2.5282862,102.8267405,"Taman Mentari, Sungai Segamat",Johor,Segamat,127.5,182500.0,13,0,6,473.1685766888037,67074.81223044556,2852.2899144002017,19,473.1685766888037,2
258,19016,2.56553,102.71057,Taman Mina,Johor,Batu Anam,63.5,200000.0,5,0,1,771.3029228000486,54943.60919951693,13422.349184135008,6,771.3029228000486,2
260,23976,2.3031776,103.1279115,"Taman Mutiara, Bekok",Johor,Bekok,99.5,160000.0,4,0,1,804.7885647988991,101744.12397952401,35784.227931911475,5,804.7885647988991,2
262,23595,0.0,0.0,Taman Pagoh Indah,Johor,Muar,177.0,460000.0,0,0,0,11148747.749698918,11166712.337270323,11152764.067977523,0,11148747.749698918,2
265,12716,1.86503005,102.9570007,Taman Pasifik Selatan,Johor,Batu Pahat,186.5,265000.0,21,0,5,253.38844918705377,104732.44545428356,784.7708140985056,26,253.38844918705377,2
266,28159,2.4999319,102.823081,"Taman Perling II, Pogoh",Johor,Segamat,106.5,145000.0,14,0,4,656.5844793869994,66406.1501849491,1043.1586379844775,18,656.5844793869994,2
267,19107,2.536011,102.831318,Taman Permai 2,Johor,Segamat,97.0,160000.0,8,0,3,707.4641061177426,67676.94876069544,3844.5856133323,11,707.4641061177426,2
268,19115,2.2714,102.53854,"Taman Permata, Tangkak",Johor,Tangkak,95.5,400000.0,11,0,4,190.70690650018497,40622.59351284733,964.2892126642058,15,190.70690650018497,2
269,23556,0.0,0.0,Taman Permatang Baharu,Johor,Muar,131.5,275000.0,0,0,0,11148747.749698918,11166712.337270323,11152764.067977523,0,11148747.749698918,2
271,19125,0.0,0.0,Taman Pertiwi,Johor,Bakri,131.0,375000.0,0,0,0,11148747.749698918,11166712.337270323,11152764.067977523,0,11148747.749698918,2
280,28107,1.7261547,103.4443198,"Taman Ria, Kulai",Johor,Kulai,71.0,187500.0,3,0,2,901.6507990588777,158049.53765039393,22044.900743967006,5,901.6507990588777,2
281,19185,2.0778557,102.5819299,"Taman Ria, Muar",Johor,Muar,160.5,699000.0,11,0,4,447.0435537078295,58088.825708933226,2364.3262951715737,15,447.0435537078295,2
282,23917,2.511051,102.8287889,"Taman Ria, Segamat",Johor,Segamat,103.5,147500.0,16,0,5,506.8551036087501,67125.0166064992,1633.7173197000868,21,506.8551036087501,2
283,19186,1.8232921,103.3025756,"Taman Ria, Simpang Renggam",Johor,Simpang Renggam,89.0,285000.0,5,0,2,587.1181154831083,139001.6538037608,22841.555301522178,7,587.1181154831083,2
290,19235,1.6050413,103.6381397,Taman Selesa,Johor,Senai,156.0,170000.0,7,0,1,776.9018297892411,183434.16877124313,4154.104880456292,8,776.9018297892411,2
295,12313,0.0,0.0,Taman Sentang Jaya,Johor,Parit Sulong,146.0,482500.0,0,0,0,11148747.749698918,11166712.337270323,11152764.067977523,0,11148747.749698918,2
298,19269,2.1879269,103.2009598,Taman Seri Palma,Johor,Paloh,74.5,365000.0,8,0,1,407.75314710440273,112519.21619779148,20694.23909871563,9,407.75314710440273,2
300,24043,0.0,0.0,Taman Setia,Johor,Kukup,53.5,41500.0,0,0,0,11148747.749698918,11166712.337270323,11152764.067977523,0,11148747.749698918,2
302,17228,0.0,0.0,Taman Sinaran,Johor,Chaah,167.0,266000.0,0,0,0,11148747.749698918,11166712.337270323,11152764.067977523,0,11148747.749698918,2
303,19316,2.302985,103.128685,Taman Sri Bekok,Johor,Bekok,111.5,179000.0,4,0,1,787.1277680917906,101832.55600182948,35717.50495263076,5,787.1277680917906,2
307,23895,1.642475,103.2607868,Taman Sri Mahkota,Johor,Benut,98.0,140000.0,7,0,2,227.3386125125161,146498.67933711983,21131.359387816796,9,227.3386125125161,2
310,28189,2.395029,103.0162586,Taman Sri Sejati,Johor,Labis,48.0,52500.0,7,0,1,323.591957262201,88094.36696362945,25454.744491867168,8,323.591957262201,2
315,19438,2.5594592,102.753632,"Taman Suria, Buloh Kasap",Johor,Segamat,42.5,46000.0,4,0,2,1438.256863611904,59514.8916233975,9112.20372884474,6,1438.256863611904,2
320,19034,1.5189733,103.63065,Taman Mutiara Mas,Johor,Skudai,387.0,725000.0,23,0,3,119.50333692821387,187843.88058753952,2217.9796156243706,26,119.50333692821387,104
321,12906,1.611170053,103.6449966,Taman Senai Utama,Johor,Senai,182.0,300000.0,7,0,2,389.10096416519275,183738.69893849018,3977.1033350183206,9,389.10096416519275,105
322,19526,2.5522884,102.7913546,Taman Yayasan,Johor,Segamat,102.0,225000.0,6,0,2,1467.6193489277,63519.5755610123,5848.341511855337,8,1467.6193489277,107
323,18327,0.0,0.0,Bandar Uda Utama,Johor,Skudai,279.0,450000.0,0,0,0,11148747.749698918,11166712.337270323,11152764.067977523,0,11148747.749698918,106
324,12091,1.5330668,103.6967307,Taman Bukit Kempas,Johor,Johor Bahru,174.0,410000.0,20,0,1,440.8234309131339,193163.1124263978,3342.1781860592932,21,440.8234309131339,103
326,19143,1.5547825,103.568892,Taman Pulai Hijauan,Johor,Kangkar Pulai,257.5,545000.0,6,0,1,1100.1666416551311,179931.02510429508,5826.278295860994,7,1100.1666416551311,102
327,8616,1.557191,103.7491143,Adda Heights,Johor,Johor Bahru,352.5,900000.0,11,0,1,672.733078689437,196747.4281869248,3762.773437329832,12,672.733078689437,102
329,18326,0.0,0.0,Bandar Tiram,Johor,Ulu Tiram,132.0,247000.0,0,0,0,11148747.749698918,11166712.337270323,11152764.067977523,0,11148747.749698918,102
331,19517,2.21931,103.54653,Taman Wawasan Kota,Johor,Bekok,32.0,42500.0,3,0,1,345.01139336129825,149215.69213646514,30810.667779520394,4,345.01139336129825,2
332,19516,2.27526,102.55436,"Taman Wawasan, Tangkak",Johor,Tangkak,120.0,185000.0,12,0,2,838.7279431089923,41919.67652037487,883.5548415813327,14,838.7279431089923,2
334,23924,1.6129113,104.2583951,Tanjung Balau,Johor,Kota Tinggi,41.5,340000.0,0,0,0,6139.801624146972,244761.90360163077,42204.81923055667,0,6139.801624146972,2
335,9084,1.4735284,103.7637897,The Astaka @ 1 Bukit Senyum,Johor,Johor Bahru,819.5,1974900.0,37,0,7,382.4165458409874,202992.18295032435,772.8085421129101,44,382.4165458409874,2
336,16573,1.4235646,103.614732,Ujana Executive Apartment,Johor,East Ledang,544.5,510000.0,7,0,2,668.2874194233789,192486.8064000284,2331.202227417498,9,668.2874194233789,2
337,24466,1.501188,103.785074,Botanika @ Tebrau Bay,Johor,Johor Bahru,550.0,657546.0,18,0,4,423.46007574499595,203372.85643699262,2181.858295118829,22,423.46007574499595,1
338,9127,1.468999982,103.6669998,Casa Almyra,Johor,Johor Bahru,369.0,1180000.0,9,0,1,535.7262734817122,194293.14722155285,2781.769238145553,10,535.7262734817122,1
339,24986,1.4229799,103.6674585,Emerald Bay @ Puteri harbour,Johor,Johor Bahru,631.0,3200000.0,4,0,0,928.009052063339,197260.395183929,3564.3398059967303,4,928.009052063339,1
340,24616,1.4290217,103.6520445,Estuari Gardens,Johor,Iskandar Puteri (Nusajaya),880.0,2111888.0,4,0,2,1187.463839817134,195478.0368891645,1854.6098929951268,6,1187.463839817134,1
341,28155,2.3816422,102.9049775,Felcra Bukit Kepong,Johor,Labis,25.0,300000.0,2,0,1,1315.8544690226317,75932.75466492263,16915.763403736855,3,1315.8544690226317,1
343,28173,1.8026515,102.9670465,Horizon Sky Villa,Johor,Batu Pahat,207.0,450000.0,3,0,0,840.6601217911185,110054.7215978448,4792.340123934571,3,840.6601217911185,1
344,18350,1.8501666,102.9531149,Kaki Bukit Gunung Soga,Johor,Batu Pahat,50.0,550000.0,25,0,5,403.3752112114431,105447.11143524467,1253.3669914001723,30,403.3752112114431,1
350,12768,0.0,0.0,Kampung Baru Sengkang,Johor,Kulai,13.0,90000.0,0,0,0,11148747.749698918,11166712.337270323,11152764.067977523,0,11148747.749698918,1
352,18387,1.8341155,103.3153565,Kampung Chokro,Johor,Simpang Renggam,56.0,350000.0,5,0,2,918.0795471142255,139626.69941764176,21487.580603141956,7,918.0795471142255,1
353,18393,2.09961,103.39651,Kampung Gajah,Johor,Kluang,53.0,65000.0,4,0,1,750.8103094238259,136150.2466268059,9530.251561732442,5,750.8103094238259,1
354,18398,1.75526,103.3064,Kampung Ibrahim Majid,Johor,Benut,38.0,270000.0,1,0,0,1952.5788085996737,143336.57923587403,29709.210831512406,1,1952.5788085996737,1
356,18426,1.8503491,102.9211101,"Kampung Muhibbah, Peserai",Johor,Batu Pahat,29.0,158000.0,14,0,7,873.741359089346,102732.49829217864,858.0883866549316,21,858.0883866549316,1
357,18427,1.568815,103.6051626,Kampung Nesa Kangkar Pulai,Johor,Skudai,227.0,580000.0,7,0,1,1184.8358853436985,182446.16798637938,4131.614071057348,8,1184.8358853436985,1
359,28022,2.4219335,103.8252262,Kampung Pengkalan Batu,Johor,Mersing,45.0,500000.0,9,0,2,1923.4404753449828,177800.86768289207,2411.052608413941,11,1923.4404753449828,1
361,28099,1.5143792,103.7972708,Kampung Rumah 10,Johor,Masai,26.0,100000.0,16,0,4,1050.9136075900012,203775.108635196,2169.780436150711,20,1050.9136075900012,1
363,28023,2.4728644,103.0122427,Kampung Sawah Baharu,Johor,Labis,6.0,40000.0,1,0,0,775.3551476440041,87327.55374020507,22192.94170248792,1,775.3551476440041,1
366,28024,2.4495559,103.8281849,Kampung Seri Lalang,Johor,Mersing,90.0,300000.0,8,0,3,270.0900628113473,178075.74829586787,2985.1518365476395,11,270.0900628113473,1
369,28003,2.0392251,102.5767895,Kampung Sri Amar Di Raja,Johor,Muar,177.0,680000.0,31,0,7,89.46017135327942,60925.435768244235,1125.364466938592,38,89.46017135327942,1
370,18456,1.4985484,103.6936418,"Kampung Sri Jaya, Tampoi",Johor,Tampoi,29.0,380000.0,20,0,2,429.67405697413085,194935.9640328401,3918.0340913426962,22,429.67405697413085,1
371,23925,2.5276663,102.800533,Kampung Tangga Batu,Johor,Segamat,1.0,57000.0,12,0,4,796.6058351013052,64170.06619265439,2978.0106678125667,16,796.6058351013052,1
374,24494,1.4195503,103.6319978,Medini Signature,Johor,Iskandar Puteri (Nusajaya),385.0,364500.0,9,0,2,854.3937688708265,194294.2911187859,847.1916020423042,11,847.1916020423042,1
375,15905,1.5260179,103.762275,Pandan Residence II,Johor,Johor Bahru,511.0,720000.0,14,0,3,526.6176786521839,199776.47404948607,3940.7501724511108,17,526.6176786521839,1
376,8615,1.470027,103.743373,Pangsapuri Adamai,Johor,Johor Bahru,425.0,600000.0,33,0,7,579.4304793556939,201294.03611790156,703.3415041410333,40,579.4304793556939,1
377,18496,2.054841,102.585814,Pangsapuri Anda,Johor,Muar,65.0,35000.0,28,0,6,758.6858261594174,60266.34194930818,1274.517175294095,34,758.6858261594174,1
378,18497,2.0473649,102.6453483,Pangsapuri Bakri Jaya,Johor,Bakri,117.0,110000.0,6,0,2,746.4172088911066,65419.55617547538,7945.425548935333,8,746.4172088911066,1
379,18505,3.236309,101.717921,Pangsapuri Mutiara,Johor,Muar,202.0,295000.0,28,2,1,220.57078990714962,927.5776446776736,3904.92100446827,31,220.57078990714962,1
380,18511,1.495585,103.8844637,Pangsapuri Sri Delima,Johor,Masai,175.0,130000.0,20,0,3,82.91766833381836,213185.76393276238,2411.354949163224,23,82.91766833381836,1
381,10829,1.4203953,103.6365223,Paradiso Nuova Medini,Johor,Iskandar Puteri (Nusajaya),607.0,588000.0,9,0,2,669.4169652971187,194644.05980044327,660.9301811480168,11,660.9301811480168,1
384,27989,2.0471306,102.5680597,Pekan Muar,Johor,Muar,135.0,380000.0,32,0,6,183.6265203498923,59632.90278932374,401.45092726996387,38,183.6265203498923,1
385,18525,2.4829468,102.8429759,Perumahan Awam Bukit Siput II,Johor,Segamat,52.0,65000.0,12,0,3,430.4193995467914,68530.00325920995,3940.6630862788043,15,430.4193995467914,1
386,18527,1.679705,103.142906,Perumahan Awam Kos Rendah Rengit,Johor,Rengit,76.0,100000.0,6,0,0,416.2707903804499,133742.98274404617,28461.26460820932,6,416.2707903804499,1
387,29138,1.5047531,103.682084,Riverria Condovilla,Johor,Johor Bahru,109.0,120000.0,22,0,4,1096.562124201301,193484.11549763524,2898.808706530512,26,1096.562124201301,1
388,23974,1.5066867,103.6843722,Rumah Pangsa Sri Indah,Johor,Tampoi,16.0,10000.0,23,0,3,1062.4320175950231,193580.15092338788,3223.7734292865402,26,1062.4320175950231,1
389,15018,1.5075512,103.8659784,"Seri Mutiara Apartments, Bandar Baru Seri Alam",Johor,Masai,334.0,450000.0,21,0,1,278.8401018771137,210742.4275950015,4735.544944811464,22,278.8401018771137,1
390,14964,1.509339,103.688841,Skudai Parade Apartment,Johor,Johor Bahru,135.0,170000.0,22,0,2,606.4406271100961,193836.86049208013,3546.0028794368022,24,606.4406271100961,1
391,15044,1.468499,103.770047,Stulang Villa,Johor,Johor Bahru,263.0,450000.0,26,0,6,505.84234588083456,203878.53639752913,1216.6917258758426,32,505.84234588083456,1
393,18557,2.4267078,102.67658,"Taman Aman, Jementah",Johor,Jementah,78.0,230000.0,7,0,1,359.75683605883114,50154.12010948618,17701.860489409908,8,359.75683605883114,1
394,28168,1.7278279,103.6406149,Taman Anjaria (Taman Sutera),Johor,Kulai,223.0,290000.0,1,0,1,1118.5100675498134,177031.5549392005,10002.96028860907,2,1118.5100675498134,1
397,18579,1.88168,103.26458,"Taman Bahagia, Simpang Renggam",Johor,Simpang Renggam,101.0,400000.0,2,0,1,126.96336172939873,132118.7714500667,17674.7478736047,3,126.96336172939873,1
399,28102,0.0,0.0,Taman Bayu Tebrau,Johor,Johor Bahru,222.0,220000.0,0,0,0,11148747.749698918,11166712.337270323,11152764.067977523,0,11148747.749698918,1
401,18610,2.54555,102.76906,"Taman Berjaya, Buloh Kasap",Johor,Segamat,94.0,145000.0,3,0,1,940.7365323420802,60955.78775198798,6808.234648580762,4,940.7365323420802,1
411,23603,0.0,0.0,Taman Cahaya Indah,Johor,Muar,160.0,750000.0,0,0,0,11148747.749698918,11166712.337270323,11152764.067977523,0,11148747.749698918,1
415,18691,2.2439686,103.0380673,Taman Chaah Utama,Johor,Chaah,77.0,60000.0,5,0,1,621.0318959869605,93404.37235049123,38056.63476932594,6,621.0318959869605,1
417,18702,2.2790184,102.5412724,"Taman Damai, Tangkak",Johor,Tangkak,88.0,400000.0,13,0,4,726.0810447102334,40451.13381954912,1035.2895862084092,17,726.0810447102334,1
419,23882,1.4939389,103.7884678,Taman Desa Belantik,Johor,Johor Bahru,66.0,50000.0,11,0,4,716.2389900373947,204114.82483953648,1836.4680818001318,15,716.2389900373947,1
421,18734,0.0,0.0,Taman Desa Putera,Johor,Kluang,238.0,425000.0,0,0,0,11148747.749698918,11166712.337270323,11152764.067977523,0,11148747.749698918,1
427,18758,2.2110102,103.5364727,"Taman Emas, Kahang",Johor,Bekok,71.0,148000.0,2,0,1,812.1078914385421,148285.9529306047,29363.68918735719,3,812.1078914385421,1
428,18760,2.4584394,103.8187143,"Taman Emas, Mersing",Johor,Mersing,116.0,90000.0,4,0,2,870.2541339684684,177016.19408809274,4419.619025703066,6,870.2541339684684,1
429,18761,2.5091955,102.8327615,"Taman Emas, Segamat",Johor,Segamat,41.0,32000.0,16,0,4,395.21181185070895,67549.79322197505,1991.5800913929124,20,395.21181185070895,1
430,13073,1.567574,103.618887,Taman Sri Pulai,Johor,Skudai,188.0,300000.0,3,0,0,218.82636821511497,183804.98731873467,3797.656525727452,3,218.82636821511497,102
431,24547,1.5231648,103.9442706,Meridin East The Greenway & The Eden,Johor,Pasir Gudang,,,3,0,2,1119.3119575070027,217490.68379620713,6962.183977686557,5,1119.3119575070027,0
432,18923,2.0150364,103.071007,Taman Kota Panorama,Johor,Yong Peng,64.0,54755.0,9,0,1,271.5530279720586,106154.70669493062,21615.8667574596,10,271.5530279720586,97
434,19334,1.8690166,102.9502479,Taman Sri Jaya,Johor,Batu Pahat,116.0,175000.0,19,0,6,472.2265323101452,103871.65524978907,857.359905104802,25,472.2265323101452,94
436,12604,1.492599964,103.7639999,Taman Melodies,Johor,Johor Bahru,204.0,641666.5,37,0,9,458.6447186075641,201882.05134768778,1340.2188884089016,46,458.6447186075641,94
437,18333,1.4816778,103.5888261,Denia Residence @ Nusantara Prima,Johor,Gelang Patah,381.0,576389.0,8,0,1,1345.7925296771152,186366.84231812577,5414.787813031175,9,1345.7925296771152,96
438,18745,0.0,0.0,Taman Desaru Utama,Johor,Kota Tinggi,222.0,400000.0,0,0,0,11148747.749698918,11166712.337270323,11152764.067977523,0,11148747.749698918,89
439,28192,1.5290654,103.582184,"Taman Scientex, Pulai",Johor,Kangkar Pulai,353.0,438800.0,2,0,0,2657.7057759943245,182752.8415177506,3869.3766521025236,2,2657.7057759943245,92
442,18770,0.0,0.0,"Taman Fajar, Pagoh",Johor,Pagoh,115.0,177000.0,0,0,0,11148747.749698918,11166712.337270323,11152764.067977523,0,11148747.749698918,1
451,29163,2.4967586,102.8381731,Taman Hijau,Johor,Segamat,119.0,450000.0,15,0,5,571.5230330849123,68061.6869303139,2709.6596060158145,20,571.5230330849123,1
453,18822,2.0521531,103.354022,"Taman Indah, Kluang",Johor,Kluang,82.0,60000.0,7,0,3,625.4670484441028,133341.1094202752,2575.2974876142334,10,625.4670484441028,1
460,18852,2.42865,102.67824,"Taman Jaya, Jementah",Johor,Jementah,143.0,220000.0,7,0,1,642.5562748662138,50321.3004731471,17435.91379146253,8,642.5562748662138,1
461,23524,2.037308,102.554909,Taman Junid Kejora,Johor,Muar,154.0,214000.0,25,0,2,72.28895415270352,59568.60930376849,1389.914287128519,27,72.28895415270352,1
464,10312,1.5090248,103.7021132,Taman Kenanga,Johor,Johor Bahru,188.0,290000.0,21,0,4,161.84443530105355,195096.08636667804,2873.5420030406126,25,161.84443530105355,1
466,18911,1.93083,102.95705,Taman Koperasi Jaya,Johor,Batu Pahat,73.0,125000.0,3,0,1,1330.5143666858519,100298.46444399795,7717.723559211126,4,1330.5143666858519,1
470,18959,1.6840232,103.1562374,"Taman Maju Jaya Baharu, Rengit",Johor,Rengit,148.0,240000.0,5,0,0,733.6035213349398,134569.8007523516,29375.949812727336,5,733.6035213349398,1
472,18995,2.4269851,102.6770875,"Taman Melodi, Jementah",Johor,Jementah,166.0,255000.0,7,0,1,421.6957412954269,50207.91310123788,17637.632354560777,8,421.6957412954269,1
474,19014,2.49845,102.81783,Taman Mida 2,Johor,Segamat,152.0,250000.0,14,0,4,1150.1841098399016,65813.40921959966,797.6647173225493,18,797.6647173225493,1
476,19022,1.8362492,103.32031,"Taman Muhibbah, Simpang Renggam",Johor,Simpang Renggam,39.0,30000.0,5,0,1,1479.444002125063,139987.6450157266,21211.065436487173,6,1479.444002125063,1
479,28103,1.588333,103.8222292,"Taman Murni, Ulu Tiram",Johor,Ulu Tiram,64.0,70000.0,8,0,1,1169.640203974946,202117.70297948495,5665.186847391565,9,1169.640203974946,1
480,28013,2.0818272,102.6392094,Taman Naib Kadir Bistari,Johor,Bukit Pasir,162.0,406800.0,6,0,2,1751.409137024539,62294.4191083245,7686.19671822394,8,1751.409137024539,1
484,23590,0.0,0.0,Taman Parit Bakar Gemilang,Johor,Muar,153.0,250000.0,0,0,0,11148747.749698918,11166712.337270323,11152764.067977523,0,11148747.749698918,1
487,19097,2.2707755,102.5337086,Taman Pelangi Fasa I,Johor,Tangkak,207.0,345000.0,11,0,4,254.27323773719064,40201.87386054546,1504.953597313611,15,254.27323773719064,1
488,23606,1.9585757,102.6397437,"Taman Pelangi, Parit Jawa",Johor,Muar,107.0,300000.0,8,0,5,384.54928450611186,72261.42817635174,11733.88049947901,13,384.54928450611186,1
490,19128,2.4017307,103.0144553,"Taman Perwira, Labis",Johor,Labis,62.0,48000.0,7,0,1,961.2207948198364,87833.78416783134,24930.111517036683,8,961.2207948198364,1
491,19132,1.84829,102.90133,"Taman Peserai, Batu Pahat",Johor,Batu Pahat,62.0,158000.0,4,0,3,507.4180062061937,101242.22105819707,2578.462408285742,7,507.4180062061937,1
494,19182,2.43152,102.67848,"Taman Ria, Jementah",Johor,Jementah,74.0,54000.0,7,0,1,599.6378571132421,50324.70668038118,17260.524504933986,8,599.6378571132421,1
495,28108,1.508285,103.5185882,"Taman Ria, Pekan Nenas",Johor,Pekan Nanas (Pekan Nenas),150.0,105000.0,6,0,1,510.98995907606724,178313.506101817,11262.869835271218,7,510.98995907606724,1
502,19239,1.9174457,102.9524404,Taman Semarak,Johor,Batu Pahat,154.0,414000.0,4,0,2,507.6297693774181,100763.5714495206,6210.405941986628,6,507.6297693774181,1
505,13062,0.0,0.0,Taman Seri Medoi,Johor,Segamat,94.0,150000.0,0,0,0,11148747.749698918,11166712.337270323,11152764.067977523,0,11148747.749698918,1
507,23601,0.0,0.0,Taman Seri Tanjung,Johor,Mersing,234.0,420000.0,0,0,0,11148747.749698918,11166712.337270323,11152764.067977523,0,11148747.749698918,1
510,19287,0.0,0.0,Taman Siantan Damai,Johor,Simpang Renggam,115.0,390000.0,0,0,0,11148747.749698918,11166712.337270323,11152764.067977523,0,11148747.749698918,1
514,23578,0.0,0.0,Taman Sinar,Johor,Kluang,76.0,355000.0,0,0,0,11148747.749698918,11166712.337270323,11152764.067977523,0,11148747.749698918,1
516,19310,2.5095,102.83277,"Taman Sri Bahagia, Segamat",Johor,Segamat,61.0,180000.0,16,0,5,423.34955309769845,67553.26610430545,2000.237065218204,21,423.34955309769845,1
517,19323,2.2431563,103.0366339,Taman Sri Chaah,Johor,Chaah,55.0,60000.0,5,0,1,703.3742824053572,93273.84416388671,38021.441375029804,6,703.3742824053572,1
519,23594,0.0,0.0,Taman Sri Fajar,Johor,Batu Pahat,162.0,250000.0,0,0,0,11148747.749698918,11166712.337270323,11152764.067977523,0,11148747.749698918,1
520,13029,0.0,0.0,Taman Sri Ganang,Johor,Jementah,74.0,63000.0,0,0,0,11148747.749698918,11166712.337270323,11152764.067977523,0,11148747.749698918,1
523,19336,2.5391064,102.8062115,"Taman Sri Jaya, Jabi",Johor,Segamat,155.0,238000.0,11,0,3,481.2738334663303,64948.58215840529,3883.1028186212025,14,481.2738334663303,1
524,19337,2.3958609,103.0235091,"Taman Sri Jaya, Labis",Johor,Labis,71.0,200000.0,7,0,1,516.3144121603347,88890.03770296606,26122.92496474442,8,516.3144121603347,1
531,12737,0.0,0.0,Taman Sri Saleng,Johor,Senai,47.0,52000.0,0,0,0,11148747.749698918,11166712.337270323,11152764.067977523,0,11148747.749698918,1
534,19423,0.0,0.0,Taman Sungai Balang Indah,Johor,Muar,120.0,185000.0,0,0,0,11148747.749698918,11166712.337270323,11152764.067977523,0,11148747.749698918,1
535,19432,2.4407067,102.6867997,"Taman Suraya, Jementah",Johor,Jementah,53.0,108000.0,7,0,1,322.4547056490614,51187.997264579855,15971.854977189874,8,322.4547056490614,1
536,22833,1.5024216,103.7524318,"Taman Suria, Johor Bharu",Johor,Johor Bahru,125.0,750000.0,33,0,7,582.5512500453052,200214.38348340703,1739.9812597590824,40,582.5512500453052,1
537,19440,2.37219,103.03096,"Taman Suria, Labis",Johor,Labis,88.0,180000.0,7,0,2,1285.8713868892985,89971.97954628945,28135.83098458074,9,1285.8713868892985,1
540,14682,1.5049377,103.7083957,Pangsapuri Persiaran Tanjung,Johor,Johor Bahru,282.0,270000.0,23,0,3,670.4257641951764,195928.56105502267,2593.8739049581495,26,670.4257641951764,88
541,18885,0.0,0.0,Taman Kempas Indah,Johor,Johor Bahru,279.0,410000.0,0,0,0,11148747.749698918,11166712.337270323,11152764.067977523,0,11148747.749698918,87
542,12688,1.482349992,103.6699982,Taman Nusa Duta,Johor,Johor Bahru,400.0,790000.0,12,0,1,658.3036086049958,193737.46835640157,1691.3036656125514,13,658.3036086049958,87
543,19459,2.2703664,102.5498108,Taman Tangkak Jaya,Johor,Tangkak,97.0,217500.0,13,0,3,768.0052999880714,41754.999296391106,330.8547977423587,16,330.8547977423587,88
544,18563,0.0,0.0,Taman Anggerik,Johor,Johor Bahru,200.5,300000.0,0,0,0,11148747.749698918,11166712.337270323,11152764.067977523,0,11148747.749698918,84
545,29168,0.0,0.0,Taman Desa Tropika,Johor,Batu Pahat,64.0,50000.0,0,0,0,11148747.749698918,11166712.337270323,11152764.067977523,0,11148747.749698918,86
546,11981,1.5472404,103.7824556,Taman Austin Perdana,Johor,Johor Bahru,379.0,537500.0,23,0,4,869.6399306472828,200502.61172459603,940.061832660812,27,869.6399306472828,84
547,19386,0.0,0.0,Taman Sri Putri,Johor,Skudai,260.0,425000.0,0,0,0,11148747.749698918,11166712.337270323,11152764.067977523,0,11148747.749698918,83
548,13099,1.487709999,103.7710037,Taman Sri Tebrau,Johor,Johor Bahru,267.5,477500.0,31,0,7,138.7781016590785,202829.66494693537,598.6911241494615,38,138.7781016590785,84
549,16300,1.492555581,103.6314583,Sri Awana Townhouse,Johor,Skudai,254.5,260000.0,11,0,2,437.8086738882809,189558.3074242114,1658.5254298604923,13,437.8086738882809,78
554,23532,2.279724,102.520446,Taman Vila,Johor,Tangkak,143.0,420000.0,10,0,3,298.67749533823604,38426.521822868635,3102.219341181526,13,298.67749533823604,1
558,19520,2.5861886,102.6260557,"Taman Wira, Gemas",Johor,Gemas,104.0,160000.0,9,0,1,382.846068468115,46402.935033104426,22872.052549225224,10,382.846068468115,1
562,15858,1.488013,103.815736,The Marina View,Johor,Permas Jaya/Senibong,695.0,800000.0,13,0,1,553.4902156154874,207043.45039928745,4541.68028334423,14,553.4902156154874,1
564,14235,1.502842,103.709114,Dwi Mahkota,Johor,Johor Bahru,280.5,270000.0,23,0,3,589.9986403801563,196121.25117362806,2713.6968205784933,26,589.9986403801563,78
565,11949,1.5889757,103.6457344,Taman Aman,Johor,Senai,146.5,185000.0,6,0,1,894.7229542598168,185080.06862870004,6121.1942817327335,7,894.7229542598168,76
566,12276,1.54034996,103.6399994,Taman Desa Skudai,Johor,Skudai,208.0,350000.0,19,0,3,513.2799116910458,187411.01296098105,2707.4072037919204,22,513.2799116910458,77
567,19455,1.4954013,103.6597066,Taman Tan Sri Yacob,Johor,Skudai,360.5,280000.0,19,0,1,1176.2154061127578,191981.11807285334,301.3186829221186,20,301.3186829221186,76
568,14422,1.4925938,103.7498305,Larkin Residence,Johor,Johor Bahru,344.0,390000.0,43,0,9,212.6580050708559,200549.05746128422,896.2022917556772,52,212.6580050708559,75
569,28051,1.8701931,102.9355323,Taman Desa Botani,Johor,Batu Pahat,385.0,668330.0,22,0,7,931.0702546002726,102525.85480190616,1982.0853031021804,29,931.0702546002726,76
570,12240,1.5179012,103.7971947,Taman Desa Harmoni,Johor,Masai,239.0,355000.0,17,0,4,1287.4901797196737,203567.4388332803,1780.2576751735849,21,1287.4901797196737,74
571,28053,2.0701663,102.5766787,Taman Putera Indah,Johor,Muar,188.0,302750.0,22,0,5,576.6617173207394,58324.55565136788,1372.1352319072785,27,576.6617173207394,76
572,13118,2.061640024,102.5859985,Taman Sungai Abong,Johor,Muar,151.0,395000.0,27,0,5,1048.6913577059547,59718.642687494874,1359.7865883840943,32,1048.6913577059547,74
573,24088,2.0686614,102.5913127,Taman Desa,Johor,Muar,104.0,112500.0,16,0,5,660.1696657576697,59544.03095689521,2250.110808346233,21,660.1696657576697,46
574,12689,1.476729989,103.637001,Taman Nusa Indah,Johor,Iskandar Puteri (Nusajaya),357.0,580000.0,7,0,1,755.8699718110181,191061.15915487945,233.15839468171666,8,233.15839468171666,72
575,28114,1.7296022,103.6986066,PPAM Bandar Akademi YPJ,Johor,Gugusan Taib Andak,192.0,268125.0,0,0,0,3912.202337470967,182698.56352776295,13093.977324030076,0,3912.202337470967,72
576,18571,0.0,0.0,Taman Austin Heights,Johor,Johor Bahru,374.0,985000.0,0,0,0,11148747.749698918,11166712.337270323,11152764.067977523,0,11148747.749698918,69
577,19153,1.5036533,103.7603736,"Taman Putera/Suria, Johor Bahru",Johor,Johor Bahru,243.0,500000.0,25,0,9,288.6244822322898,200891.77278570522,2496.4163540414265,34,288.6244822322898,69
578,18303,0.0,0.0,Bandar Baru Bukit Gambir,Johor,Bukit Gambir,114.5,350000.0,0,0,0,11148747.749698918,11166712.337270323,11152764.067977523,0,11148747.749698918,72
579,8931,1.50019002,103.788002,Bayu Puteri 3,Johor,Johor Bahru,330.0,330000.0,15,0,4,586.1986050415093,203708.2595028564,2277.62469925287,19,586.1986050415093,68
580,19473,2.0768699,102.586509,Taman Temiang Jaya,Johor,Muar,164.5,300000.0,11,0,5,866.3835043845163,58515.6569452361,2511.301846054,16,866.3835043845163,72
581,14421,1.4937215,103.7532363,Larkin Idaman,Johor,Johor Bahru,383.0,360000.0,42,0,9,397.68409818903245,200802.57660779622,1294.263970111344,51,397.68409818903245,67
583,18886,0.0,0.0,Taman Kempas Utama,Johor,Johor Bahru,436.5,759000.0,0,0,0,11148747.749698918,11166712.337270323,11152764.067977523,0,11148747.749698918,68
584,27998,2.0521939,102.6456178,Jalan Bakri,Johor,Bakri,229.5,580000.0,6,0,2,1051.8546389966266,65066.65467716512,7919.984894405824,8,1051.8546389966266,66
586,12655,1.588780046,103.8160019,Taman Mutiara,Johor,Ulu Tiram,126.5,275000.0,9,0,1,841.4615921883012,201485.97191824482,5183.356355607471,10,841.4615921883012,18
587,15747,1.509916,103.685959,Kipark Apartment,Johor,Tampoi,389.0,340000.0,22,0,3,929.1327518320825,193533.16249081443,3276.4636945325583,25,929.1327518320825,66
588,10706,1.439700007,103.5970001,Nusa Heights (Nusa Puncak),Johor,Gelang Patah,410.0,388000.0,10,0,1,1263.4345003113579,189838.58131929475,4498.155724068441,11,1263.4345003113579,65
589,16396,1.5162139,103.6996609,Taman Cempaka,Johor,Johor Bahru,121.0,71500.0,20,0,4,300.1211752018207,194437.08688756172,2843.1467271754686,24,300.1211752018207,56
590,12210,1.5822776,103.8117601,Taman Dato Chellam,Johor,Ulu Tiram,260.0,450000.0,14,0,1,329.67454942467134,201419.1638989683,4345.74501848147,15,329.67454942467134,65
591,19156,1.8774958,102.9518752,Taman Puteri Jaya,Johor,Batu Pahat,274.5,538000.0,12,0,4,514.7644480547987,103421.93733164766,1793.5033602003307,16,514.7644480547987,65
592,19514,1.6850905,103.5281862,"Taman Wawasan, Kulai",Johor,Kulai,141.0,150000.0,6,0,2,719.1640457586258,168388.57674497788,11666.998135445478,8,719.1640457586258,65
594,19403,2.0360442,102.5824961,Taman Sri Temenggong,Johor,Muar,150.0,295000.0,28,0,8,576.618460710461,61602.006177042684,1690.9898473706278,36,576.618460710461,64
595,13459,1.4899036,103.8140583,"The Straits View, Bandar Baru Permas Jaya",Johor,Permas Jaya/Senibong,296.0,487500.0,13,0,1,595.1761278642749,206775.16891081407,4381.00006792086,14,595.1761278642749,64
596,16599,1.492207,103.6534417,Villa Bestari,Johor,Skudai,310.0,360000.0,16,0,2,1353.1711436277985,191600.72627562933,610.9394159163458,18,610.9394159163458,63
598,16069,1.512011,103.6830854,Park Avenue,Johor,Tampoi,230.5,160000.0,23,0,3,545.5764807378961,193138.7975739393,2890.4414788143285,26,545.5764807378961,62
599,18815,0.0,0.0,Taman Impian Jaya,Johor,Senai,134.0,250000.0,0,0,0,11148747.749698918,11166712.337270323,11152764.067977523,0,11148747.749698918,35
600,13055,1.722406,103.892617,Taman Sri Lalang,Johor,Kota Tinggi,97.0,165000.0,14,0,2,388.9128444122027,202584.5656046527,1691.888393386859,16,388.9128444122027,62
601,15358,1.4964844,103.8553677,Apartment Ria,Johor,Masai,200.0,180000.0,15,0,0,396.8208211279151,210341.7453314911,4988.62711261485,15,396.8208211279151,63
602,10937,1.510750055,103.8249969,"Permas Ville, Bandar Baru Permas Jaya ",Johor,Permas Jaya/Senibong,312.0,347000.0,16,0,2,238.59286326225913,206629.85903018652,4039.2736390273376,18,238.59286326225913,63
604,28043,2.0133832,103.3003648,Taman Intan,Johor,Kluang,101.0,155000.0,21,0,2,448.4757755559347,129335.62603180412,3028.6017614556795,23,448.4757755559347,50
605,28010,2.0643741,102.5462189,Taman Kesang Idaman,Johor,Muar,115.5,310000.0,11,0,0,397.61233738776116,56620.14518553314,3110.045464582324,11,397.61233738776116,62
606,12517,1.656900048,103.564003,Taman Lagenda Putra,Johor,Kulai,234.0,385000.0,6,0,0,1018.7472286917642,173408.69845893502,6807.715779058601,6,1018.7472286917642,62
608,16522,1.4994476,103.6877768,Taman Tampoi Utama,Johor,Tampoi,133.5,110000.0,19,0,2,715.7235399830134,194335.59264577247,3296.46023212868,21,715.7235399830134,64
609,18305,1.4998837,103.8669776,Bandar Baru Kota Puteri,Johor,Masai,223.0,200000.0,21,0,1,869.1261659323493,211265.19250296624,4085.3752035369776,22,869.1261659323493,59
610,24024,1.5659873,103.7314796,Pangsapuri Kasturi MyHome,Johor,Johor Bahru,115.0,99000.0,9,0,1,944.5274216583086,194563.39811259738,4945.625746282654,10,944.5274216583086,62
611,18830,1.929726,102.8525474,Taman Industri Sri Sulong,Johor,Parit Sulong,91.0,175000.0,2,0,2,1058.6633654622524,91222.32144185712,11104.180575230426,4,1058.6633654622524,59
614,23906,2.4966866,102.8634842,Bandar Putra IOI,Johor,Segamat,206.0,330000.0,12,0,1,378.2037016712224,70872.27406041842,5440.824226083753,13,378.2037016712224,1417
615,18647,1.4807002,3.6579241,Taman Bukit Indah,Johor,Johor Bahru,376.0,570000.0,0,0,0,10727636.029757943,10743962.69424279,10731793.450187381,0,10727636.029757943,1303
616,12862,1.502589941,103.9169998,Taman Scientex,Johor,Pasir Gudang,292.0,300000.0,12,0,0,887.8093432398938,215941.68715079498,3329.1047827269417,12,887.8093432398938,947
617,19263,0.0,0.0,Taman Seri Impian,Johor,Kluang,210.0,361448.0,0,0,0,11148747.749698918,11166712.337270323,11152764.067977523,0,11148747.749698918,1295
618,10034,1.493009,103.939636,Taman Kota Masai,Johor,Pasir Gudang,213.0,210000.0,10,0,0,1445.4175389071795,218656.04462000492,4521.170553748193,10,1445.4175389071795,1218
619,13216,1.532019973,103.6220016,Taman Universiti,Johor,Skudai,211.0,275000.0,12,0,2,598.1056785999209,186242.8628040519,606.7026460839058,14,598.1056785999209,805
620,12662,1.523740053,103.6389999,Taman Mutiara Rini,Johor,Skudai,325.0,550000.0,22,0,3,233.06279071660757,188325.31721840997,2697.306888584383,25,233.06279071660757,759
621,18307,1.5063827,103.8744289,Bandar Baru Seri Alam,Johor,Masai,255.0,360000.0,20,0,1,652.5463715807443,211620.95484011594,4026.39800673417,21,652.5463715807443,767
622,18903,0.0,0.0,Taman Kluang Indah,Johor,Pontian,178.0,397800.0,0,0,0,11148747.749698918,11166712.337270323,11152764.067977523,0,11148747.749698918,749
623,12410,1.535629988,103.8010025,Taman Johor Jaya,Johor,Johor Bahru,240.0,340000.0,21,0,4,386.59377840095266,202932.37876769755,480.48303477898577,25,386.59377840095266,657
624,18717,0.0,0.0,"Taman Delima, Johor Bahru",Johor,Johor Bahru,165.0,330000.0,0,0,0,11148747.749698918,11166712.337270323,11152764.067977523,0,11148747.749698918,58
625,12771,1.511260033,103.7799988,Taman Ponderosa,Johor,Johor Bahru,390.0,1000000.0,16,0,4,1271.6600985645382,202309.69644799535,3041.419236758609,20,1271.6600985645382,60
626,28094,1.6576753,103.5587565,Taman Scientex 2,Johor,Kulai,331.5,453800.0,6,0,0,1587.2957930796338,172864.15544328108,7392.007795270061,6,1587.2957930796338,56
628,19452,1.5138977,103.6825942,"Taman Tampoi Indah II, Villa Ros",Johor,Tampoi,290.0,310000.0,25,0,3,353.5855519154537,192979.3282659847,2699.0595349299433,28,353.5855519154537,59
629,11997,1.8340402,102.9303678,Taman Banang Heights,Johor,Batu Pahat,156.0,300000.0,17,0,5,1033.9508331082232,104698.64594990728,1089.617850882173,22,1033.9508331082232,57
630,19155,1.8756423,102.9536646,Taman Puteri Indah,Johor,Batu Pahat,260.0,428000.0,15,0,4,699.3989084175475,103705.51984878484,1613.3786446681493,19,699.3989084175475,59
631,8989,1.487020016,103.7529984,Bistari Impian,Johor,Johor Bahru,314.5,340000.0,51,0,10,322.61488818536975,201177.12253669693,1289.7958812186082,61,322.61488818536975,56
632,23945,1.5598591,103.7879028,Glenmarie Height,Johor,Johor Bahru,412.0,709888.0,21,0,3,217.59895020308295,200325.8420807422,715.1037015190169,24,217.59895020308295,42
636,10592,1.527240038,103.7850037,Molek Pine,Johor,Johor Bahru,399.0,550000.0,11,0,4,514.7329825894111,201873.07449523572,1529.9736174201582,15,514.7329825894111,55
637,11910,1.4879418,103.7523911,SuriaMas Suites,Johor,Johor Bahru,397.0,365000.0,51,0,11,219.31060501483535,201065.38584978107,1195.8882566727777,62,219.31060501483535,55
638,12321,1.523740053,103.7450027,Taman Gembira,Johor,Johor Bahru,125.0,180000.0,17,0,4,1417.812796000596,198268.18065439435,2280.5334904519464,21,1417.812796000596,57
639,12651,1.516240001,103.6920013,Taman Munshi Ibrahim,Johor,Johor Bahru,219.0,300000.0,25,0,2,617.1308734577407,193718.0893132167,3360.7023774738773,27,617.1308734577407,55
640,9409,0.0,0.0,East Ledang,Johor,Iskandar Puteri (Nusajaya),397.5,1316000.0,0,0,0,11148747.749698918,11166712.337270323,11152764.067977523,0,11148747.749698918,54
641,14999,1.500707,103.747984,"Sri Impian Apartment, Larkin Perdana",Johor,Johor Bahru,262.5,250000.0,35,0,8,313.51697356159644,199896.11071453762,1291.4460030654022,43,313.51697356159644,54
642,12453,1.537469983,103.7099991,Taman Kempas,Johor,Johor Bahru,203.5,223500.0,12,0,2,184.1966906053233,194156.7941191616,2375.3363172392355,14,184.1966906053233,54
643,19006,2.06344,103.12042,Taman Mewah,Johor,Chaah,95.0,99000.0,2,0,1,486.2018160120023,108759.79518161189,21530.949964758904,3,486.2018160120023,4
645,15554,1.536507,103.634772,Desa Skudai Apartment,Johor,Skudai,205.0,260000.0,18,0,3,353.1571150622674,187156.0030836119,2042.07460038712,21,353.1571150622674,57
646,18344,1.507568,103.8883838,"Flat Tasek 64, Bandar Baru Seri Alam",Johor,Masai,99.0,65000.0,19,0,1,193.36835967974704,212901.73486679202,3479.3521383230636,20,193.36835967974704,53
649,12781,1.575266,103.596724,Taman Pulai Emas,Johor,Kangkar Pulai,239.0,300000.0,7,0,1,1834.9626122137058,181270.3822804359,5145.344316428108,8,1834.9626122137058,53
650,28049,1.9854982,103.2525825,Taman Sri Ehsan,Johor,Kluang,132.0,438728.0,2,0,1,491.5559844575143,125711.6796626424,8822.755310120194,3,491.5559844575143,55
651,9308,1.4851927,103.7624574,D'Esplanade Residence,Johor,Johor Bahru,631.0,510000.0,43,0,11,434.26446315341553,202173.999988696,527.2993503704434,54,434.26446315341553,53
652,15805,1.493370056,103.7549973,M'Tiara,Johor,Johor Bahru,370.0,370000.0,42,0,9,525.9047224066568,200989.00540094572,1476.1913359252865,51,525.9047224066568,53
653,23921,2.0097264,102.5964501,Taman Desa Bijaya,Johor,Muar,114.0,360000.0,9,0,4,348.07620753888057,64833.68153563042,4331.914945166694,13,348.07620753888057,53
654,11566,1.504609942,103.6399994,Skudai Villa,Johor,Skudai,289.0,320000.0,20,0,3,159.12648266149438,189593.34445202257,2475.7150078469604,23,159.12648266149438,52
655,12249,1.671489954,103.6019974,Taman Desa Kulai,Johor,Kulai,143.0,250000.0,8,0,1,1078.448625182478,176239.61974173156,4243.099340979679,9,1078.448625182478,50
657,12497,2.014760017,103.0739975,Taman Kota,Johor,Yong Peng,120.0,198000.0,9,0,1,197.39919988929887,106463.21935915425,21799.14497404034,10,197.39919988929887,52
658,23949,1.6142634,103.8125683,Bandar Cemerlang,Johor,Ulu Tiram,288.0,700000.0,7,0,1,759.2500549503543,199810.44993775932,7258.808266265062,8,759.2500549503543,49
659,24075,1.5326338,103.5691932,Laman Indah 2,Johor,Johor Bahru,139.0,150000.0,3,0,1,2473.368597574339,181338.15133439915,5287.065923099938,4,2473.368597574339,49
660,23891,1.5789693,103.7580576,Setia Eco Cascadia,Johor,Johor Bahru,410.0,732800.0,5,0,0,1546.9519058256842,196393.37980993523,3769.027700101377,5,1546.9519058256842,49
663,13863,1.550938,103.79535,Tebrau City Residences,Johor,Johor Bahru,260.0,355000.0,26,0,4,625.5935248832353,201536.7636366148,659.414231148054,30,625.5935248832353,49
664,9898,1.488870025,103.8079987,Impian Senibong,Johor,Permas Jaya/Senibong,359.0,330000.0,12,0,2,717.2596450882311,206259.57830206474,3697.2810235607258,14,717.2596450882311,48
666,12691,1.456480026,103.5910034,Taman Nusa Perintis 1,Johor,Gelang Patah,204.5,450000.0,7,0,1,188.897122128449,188199.33257575595,5722.711669196051,8,188.897122128449,48
667,18310,0.0,0.0,Bandar Bistari Perdana,Johor,Pasir Gudang,325.0,448000.0,0,0,0,11148747.749698918,11166712.337270323,11152764.067977523,0,11148747.749698918,48
668,8930,1.4986181,103.7883873,Bayu Puteri 2,Johor,Johor Bahru,296.0,260000.0,17,0,4,573.3052498276776,203835.7722096783,2174.4203994937875,21,573.3052498276776,47
669,23923,1.99176,102.6167503,Kawasan Jalan Temenggong Ahmad,Johor,Muar,124.0,310000.0,10,0,6,1084.7550747511975,67803.37529171759,7339.779728505522,16,1084.7550747511975,47
670,11042,1.487179995,103.7929993,Polo Park,Johor,Johor Bahru,262.0,280000.0,11,0,3,1594.9952775567187,204936.93611510925,2018.9470739945668,14,1594.9952775567187,47
671,18952,2.0481262,102.5673269,Taman Maharani Ayu,Johor,Muar,277.5,539000.0,32,0,6,318.375794356895,59496.09900897619,455.91134514915876,38,318.375794356895,48
672,23905,1.5254972,103.6245895,Taman Mutiara Utama,Johor,Skudai,390.0,538000.0,16,0,3,376.5008073137697,186882.30907014865,1230.9353010008458,19,376.5008073137697,47
673,12690,1.4944065,103.6461181,Taman Nusa Jaya Mas,Johor,Skudai,286.0,460000.0,12,0,2,971.7946839678436,190789.72490176413,1433.443883492734,14,971.7946839678436,47
674,13539,1.4813007,103.7185651,Tropez Residences @ Danga Bay,Johor,Johor Bahru,618.5,515000.0,23,0,4,1383.6740001357255,198301.05526424138,2586.1669012400266,27,1383.6740001357255,48
675,15369,1.4460706,103.9359939,Apartment Tanjung Puteri Resort,Johor,Pasir Gudang,102.0,110000.0,4,0,1,993.6389323345704,220902.28052554542,4329.94002149891,5,993.6389323345704,47
676,12322,1.651669979,103.5889969,Taman Gemilang,Johor,Kulai,215.5,380000.0,12,0,1,1089.6300076192879,176093.48450989262,3985.2866954594765,13,1089.6300076192879,46
677,19483,2.27178,102.5570485,Taman Tiara,Johor,Tangkak,192.5,340000.0,11,0,2,1302.177580260136,42370.642014289515,1095.4763200116124,13,1095.4763200116124,46
678,11187,1.500460029,103.8560028,"Apartment Putri Ria, Bandar Baru Kota Putri",Johor,Masai,240.0,230000.0,15,0,0,396.8962450498347,210179.40328145583,5132.530433867234,15,396.8962450498347,45
679,8824,2.036361,103.318641,Haji Manan Flat,Johor,Kluang,107.5,82500.0,22,0,6,210.01362019986834,130271.51296561232,728.3421967739529,28,210.01362019986834,46
680,11117,1.501809955,103.6959991,Pulai View,Johor,Johor Bahru,324.0,390000.0,20,0,2,382.2987207747627,194958.48664528187,3875.0073988305176,22,382.2987207747627,45
682,18596,0.0,0.0,Taman Banang Ria,Johor,Batu Pahat,333.0,349000.0,0,0,0,11148747.749698918,11166712.337270323,11152764.067977523,0,11148747.749698918,46
684,19142,0.0,0.0,Taman Pulai Flora,Johor,Skudai,286.0,500000.0,0,0,0,11148747.749698918,11166712.337270323,11152764.067977523,0,11148747.749698918,45
686,28154,2.1343156,102.7329887,Bandar Universiti Pagoh,Johor,Pagoh,279.0,362888.0,1,0,0,2223.327310186946,67005.05363795401,19574.91452372456,1,2223.327310186946,44
688,12409,1.513960004,103.6940002,Taman Johor,Johor,Johor Bahru,178.0,355000.0,24,0,2,636.3151380460147,194041.57200909455,3513.785846047406,26,636.3151380460147,44
689,12519,1.4643207,103.6990303,Taman Laguna,Johor,Johor Bahru,326.0,835000.0,5,0,1,890.078326336552,197530.5765592051,4867.231996196199,6,890.078326336552,44
690,12674,1.529109955,103.6579971,Taman Nesa,Johor,Skudai,192.0,250000.0,24,0,3,888.1994272967796,189767.59038854728,935.4808291688021,27,888.1994272967796,43
692,11348,1.486359954,103.75,Seasons Luxury Apartments @ Amara Larkin,Johor,Johor Bahru,400.0,400000.0,52,0,9,243.08919935196204,200934.9720239179,1011.3668679948054,61,243.08919935196204,43
693,12389,1.489850044,103.7900009,Taman Iskandar,Johor,Johor Bahru,354.0,650000.0,10,0,4,1152.7402801635426,204497.78110299527,1771.9941957971976,14,1152.7402801635426,43
694,23961,1.513771,103.8240372,"D'Ambience Residences (Ikatan Flora), Bandar Baru Permas Jaya",Johor,Permas Jaya/Senibong,436.0,373500.0,17,0,2,284.063778621481,206367.7309768411,3749.0948759179237,19,284.063778621481,42
696,12483,2.012870073,103.2910004,Taman Kluang Barat,Johor,Kluang,96.0,97500.0,14,0,0,171.79393299583697,128396.76671182565,3651.910551145834,14,171.79393299583697,42
698,12905,1.609281,103.667237,Taman Senai Jaya,Johor,Senai,175.0,270000.0,3,0,1,2598.2577796490646,185973.18623658942,5967.895612847821,4,2598.2577796490646,45
700,18489,0.0,0.0,Leisure Farm,Johor,Gelang Patah,408.0,950000.0,0,0,0,11148747.749698918,11166712.337270323,11152764.067977523,0,11148747.749698918,40
703,13019,1.510660052,103.7269974,Taman Sri Bahagia,Johor,Johor Bahru,163.0,280000.0,22,0,6,540.7926919276342,197333.66517487002,1260.3595004976912,28,540.7926919276342,40
704,8929,1.497779965,103.788002,Bayu Puteri 1,Johor,Johor Bahru,333.0,360000.0,15,0,4,523.251295797382,203847.80341935402,2077.553219820908,19,523.251295797382,40
705,9313,1.485669971,103.6650009,D'Inspire Residence,Johor,Skudai,539.0,516945.0,13,0,1,807.5373934507071,193071.15623660287,1040.439104647683,14,807.5373934507071,38
706,9876,1.488735,103.807958,Idaman Senibong,Johor,Permas Jaya/Senibong,310.0,260000.0,11,0,2,732.4760906911641,206263.52289011737,3690.738185369486,13,732.4760906911641,39
707,9424,1.502910018,103.7340012,Kondominium Datin Halimah,Johor,Johor Bahru,279.5,350000.0,25,0,5,196.9554766380476,198450.54478932923,1617.1416464299468,30,196.9554766380476,38
708,11435,1.486850023,103.8320007,Senibong Cove,Johor,Masai,475.5,1080000.0,17,0,1,843.4676491063352,208656.78491909974,6338.818851030038,18,843.4676491063352,38
709,12306,1.510028,103.898025,Taman Flora Heights,Johor,Pasir Gudang,214.0,320000.0,18,0,1,715.6837544991782,213699.11280988084,3660.4559114271506,19,715.6837544991782,38
712,19422,2.0601172,102.6001773,Taman Sungai Abong Permai,Johor,Muar,241.0,750000.0,15,0,5,531.1104711512819,60907.433101620285,2863.6523777776224,20,531.1104711512819,38
713,18301,1.54432,103.7865987,Austin Boulevard,Johor,Johor Bahru,420.0,500000.0,22,0,4,1108.2626371046476,201063.65737801653,562.956133937007,26,562.956133937007,37
714,18639,0.0,0.0,Taman Bukit Bakri,Johor,Bakri,114.0,315000.0,0,0,0,11148747.749698918,11166712.337270323,11152764.067977523,0,11148747.749698918,37
715,12111,1.8615621,102.9424615,Taman Bukit Pasir,Johor,Batu Pahat,143.0,290000.0,25,0,7,164.1116292165799,103729.26433742211,950.4452278629162,32,164.1116292165799,38
716,18792,0.0,0.0,Taman Gunung Selatan,Johor,Batu Pahat,64.0,50000.0,0,0,0,11148747.749698918,11166712.337270323,11152764.067977523,0,11148747.749698918,38
717,12379,1.603620052,103.8219986,"Taman Intan, Ulu Tiram",Johor,Ulu Tiram,97.5,165000.0,7,0,1,410.1009655414561,201290.7296439578,6847.5729526736795,8,410.1009655414561,38
718,19171,0.0,0.0,Taman Rengam Jaya,Johor,Simpang Renggam,84.0,150000.0,0,0,0,11148747.749698918,11166712.337270323,11152764.067977523,0,11148747.749698918,37
719,12832,1.518939972,103.8239975,Taman Ria,Johor,Plentong,92.5,200000.0,15,0,2,623.0575456320372,206073.49607076042,3434.9457701299543,17,623.0575456320372,24
721,19365,1.6617412,103.58574,Taman Sri Muhibbah,Johor,Kulai,190.0,198000.0,12,0,1,424.1320001959091,175215.5116572176,4799.502040828099,13,424.1320001959091,37
723,16633,1.859069,102.96037,Hillview Loft,Johor,Batu Pahat,320.0,300000.0,25,0,4,731.5195906536505,105439.83499244435,1071.3080049587509,29,731.5195906536505,37
724,10219,0.0,0.0,Taman Setia Indah,Johor,Johor Bahru,166.0,980260.0,0,0,0,11148747.749698918,11166712.337270323,11152764.067977523,0,11148747.749698918,19
725,12215,1.5522577,103.7603977,Taman Daya,Johor,Johor Bahru,205.5,330000.0,17,0,2,781.9284897491258,198105.8190793345,2534.4791331830124,19,781.9284897491258,650
726,18306,1.5017922,103.8182753,Bandar Baru Permas Jaya,Johor,Permas Jaya/Senibong,289.0,400000.0,16,0,2,336.7389623770094,206495.4874956947,4276.519691106545,18,336.7389623770094,600
727,9849,1.4603075,103.6514497,Horizon Hills,Johor,Horizon Hills,464.0,851800.0,8,0,1,777.985459154106,193419.10017542177,2574.0543810095,9,777.985459154106,586
728,12801,1.5889063,103.8004903,Taman Puteri Wangsa,Johor,Ulu Tiram,226.0,340000.0,9,0,1,955.9647357073108,199967.00970965563,4151.195255358151,10,955.9647357073108,575
729,19106,1.4778655,103.6779466,Taman Perling,Johor,Johor Bahru,237.5,400000.0,11,0,1,795.3709856809666,194747.97143874897,2686.923436941823,12,795.3709856809666,532
730,13212,1.519799948,103.6610031,Taman Ungku Tun Aminah,Johor,Skudai,218.0,300000.0,23,0,4,472.40618183545155,190610.06413678834,1428.5157982410226,27,472.40618183545155,495
731,19151,1.932752,102.9458774,Bandar Putera Indah,Johor,Batu Pahat,182.0,332900.0,3,0,1,1963.880631662472,99169.09372155638,7921.3698304180425,4,1963.880631662472,470
732,18323,0.0,0.0,Bandar Selesa Jaya,Johor,Skudai,244.5,235000.0,0,0,0,11148747.749698918,11166712.337270323,11152764.067977523,0,11148747.749698918,448
733,18997,0.0,0.0,Taman Mengkibol,Johor,Kluang,137.0,150000.0,0,0,0,11148747.749698918,11166712.337270323,11152764.067977523,0,11148747.749698918,450
734,14325,1.465399218,103.6455345,Horizon Residence (Dwi Mutiara),Johor,Bukit Indah,438.0,777500.0,8,0,1,726.1364410917172,192556.95252880815,1736.4188502850336,9,726.1364410917172,36
735,18470,2.0193317,103.3269577,Kampung Yap Tau Sah,Johor,Kluang,53.5,200000.0,24,0,7,198.27678400496345,131824.40350256182,1093.7863331490423,31,198.27678400496345,36
739,18689,2.536059,102.832204,"Taman Ceria, Segamat",Johor,Segamat,84.0,80000.0,5,0,3,794.300385120412,67775.41641749839,3895.8696116471533,8,794.300385120412,35
740,18703,1.5101164,103.7134755,Taman Damansara Aliff,Johor,Johor Bahru,401.0,700000.0,23,0,4,1154.598344815134,196095.5632014435,1789.2866657284299,27,1154.598344815134,35
741,19505,2.5094823,102.8225408,"Taman Utama, Segamat",Johor,Segamat,234.0,360000.0,15,0,5,559.7309233186725,66418.78508147997,934.1794806105476,20,559.7309233186725,35
742,15273,1.508663,103.885591,"Vista Seri Alam, Bandar Baru Seri Alam",Johor,Masai,276.0,240000.0,17,0,1,143.5436242053648,212571.86682590528,3680.8468502693586,18,143.5436242053648,35
743,12011,1.8611464,102.9318087,Taman Batu Pahat,Johor,Batu Pahat,142.5,255000.0,25,0,7,1083.8102285773757,102852.73260948785,1103.1249313021806,32,1083.8102285773757,34
747,13278,1.414299965,103.6539993,"Teega Residences, Puteri Harbour",Johor,Kota Iskandar,673.0,850000.0,5,0,2,1683.2929294958979,196610.92457852288,2439.925935500831,7,1683.2929294958979,34
748,15568,1.50248003,103.8509979,East Bay,Johor,Masai,360.0,380000.0,12,0,0,463.3323559264901,209586.10849995408,5726.690357053966,12,463.3323559264901,33
749,16280,1.569990748,103.7746498,Sky Oasis Residences,Johor,Johor Bahru,478.0,430000.0,13,0,2,182.16040495042117,198488.891529013,1817.9827113924955,15,182.16040495042117,33
751,19123,2.0596508,102.5980144,Taman Pertama Indah,Johor,Muar,225.0,620000.0,16,0,5,293.977643898093,60781.63350145869,2618.8675713688185,21,293.977643898093,33
754,19281,1.869686,102.9464239,Taman Setia Jaya,Johor,Batu Pahat,191.0,235000.0,21,0,7,288.90157181320046,103495.59645261777,1057.8673596376948,28,288.90157181320046,34
755,18299,1.5606634,103.7791088,Akademik Suite (Akimiat),Johor,Johor Bahru,419.0,235000.0,16,0,3,426.7082094253123,199433.87460406253,683.5055400438064,19,426.7082094253123,32
756,15578,1.479463,103.758628,Bangunan Duta Impian (The Embassy Suites),Johor,Johor Bahru,458.0,370000.0,44,0,10,846.8536358250716,202154.65189639147,532.4069740786554,54,532.4069740786554,32
757,14774,1.474923,103.75962,Pelita Indah Condominium,Johor,Johor Bahru,251.0,390000.0,41,0,10,760.9159634182986,202518.33022415804,740.268397372731,51,740.268397372731,33
758,11568,1.547770023,103.7170029,Sky Gardens Residences,Johor,Setia Tropika,427.0,416500.0,12,0,2,98.8169133374434,194222.81306505742,2993.4942548576537,14,98.8169133374434,32
759,28196,1.38645,104.27064,Taman Bayu Damai,Johor,Pengerang,20.0,60000.0,2,0,0,319.0833783917542,256649.0502936332,41787.26412214944,2,319.0833783917542,40
762,18683,2.0210801,102.5634833,Taman Cempaka Selatan,Johor,Muar,167.0,320000.0,21,0,3,1210.8264161211484,61572.458888688874,1671.437961768164,24,1210.8264161211484,32
765,23928,2.1598768,102.5786473,Bukit Gambir (Jalan Serom),Johor,Sungai Mati,117.5,380000.0,8,0,4,825.1878764280293,51523.68237947394,11266.960319231914,12,825.1878764280293,30
767,14411,1.4877295,103.72359,Lagenda Tasek,Johor,Johor Bahru,369.5,400000.0,26,0,6,760.6153007036609,198381.37533681418,2074.867970471041,32,760.6153007036609,30
770,19113,0.0,0.0,Taman Permata,Johor,Johor Bahru,136.0,250000.0,0,0,0,11148747.749698918,11166712.337270323,11152764.067977523,0,11148747.749698918,29
771,12889,2.015739,103.061483,Taman Selatan,Johor,Yong Peng,87.5,147500.0,9,0,1,206.19254004363944,105182.45472094552,21040.940335687035,10,206.19254004363944,30
772,28194,0.0,0.0,Taman Serimbun,Johor,Kangkar Pulai,464.0,666000.0,0,0,0,11148747.749698918,11166712.337270323,11152764.067977523,0,11148747.749698918,30
773,19439,2.0501805,103.3153365,"Taman Suria, Kluang",Johor,Kluang,108.0,134000.0,14,0,5,885.122760062655,129381.08002123075,1388.5839600386842,19,885.122760062655,32
774,15247,1.490303,103.634651,"Villa Krystal, Bandar Selesa Jaya",Johor,Skudai,278.0,240000.0,11,0,3,161.16719302306944,189992.1922706937,1308.2151464391623,14,161.16719302306944,30
775,14500,1.523819,103.690408,Mewah View Luxurious Apartments,Johor,Johor Bahru,288.0,350000.0,21,0,4,576.8847067126761,193116.59817861463,2852.4999133743395,25,576.8847067126761,29
776,11996,1.8657906,102.9379681,Taman Banang,Johor,Batu Pahat,145.0,310000.0,25,0,7,654.3555927999734,103045.80434444376,1532.6104542250544,32,654.3555927999734,29
778,12514,1.868549943,102.9369965,Taman Kurnia,Johor,Batu Pahat,191.0,290000.0,23,0,7,792.0898437465039,102767.31158882816,1752.188290791023,30,792.0898437465039,29
779,12692,1.448577,103.594376,Taman Nusa Perintis 2,Johor,Gelang Patah,316.0,425000.0,11,0,1,386.55981757319205,189019.67638197134,5151.189981843658,12,386.55981757319205,30
780,13482,0.0,0.0,Taman Saujana Putra,Johor,Muar,255.0,392600.0,0,0,0,11148747.749698918,11166712.337270323,11152764.067977523,0,11148747.749698918,29
782,13156,2.066139936,102.5510025,Taman Tanjung Gading,Johor,Muar,131.0,170000.0,15,0,4,171.32389549333485,56804.13021196516,2687.4776370024415,19,171.32389549333485,29
783,13518,1.498487,103.714399,"Titiwangsa Apartment, Bandar Baru Uda",Johor,Johor Bahru,182.0,190000.0,23,0,3,563.2824949006259,196876.50457853984,2816.712389062227,26,563.2824949006259,29
784,19542,0.0,0.0,Wisma 2020,Johor,Muar,165.0,123000.0,0,0,0,11148747.749698918,11166712.337270323,11152764.067977523,0,11148747.749698918,29
785,12131,1.5694169,103.8168937,Taman Bukit Tropika,Johor,Ulu Tiram,153.5,700000.0,16,0,0,1168.2862519152811,202609.71550171534,3809.331769460805,16,1168.2862519152811,28
786,16395,1.4908314,103.845527,Taman Cahaya Kota Putri Shop Apartment,Johor,Masai,170.0,119000.0,15,0,0,519.2098922765329,209719.68911585695,5799.786407195465,15,519.2098922765329,28
788,12362,1.529129982,103.6809998,Taman Impian,Johor,Skudai,155.0,300000.0,20,0,3,500.37646437332995,191918.16733760954,1693.1966642441719,23,500.37646437332995,29
790,29247,1.5157408,103.6260155,"Taman Mutiara Bestari, Skudai",Johor,Johor Bahru,459.0,1209000.0,20,0,3,552.6454567101044,187615.0032896923,2201.012051488273,23,552.6454567101044,29
791,19200,2.055683,102.5883241,Taman Sakeh Baru,Johor,Muar,183.0,292500.0,26,0,5,877.0144427329986,60382.0224022914,1535.9695768798938,31,877.0144427329986,28
792,19273,1.95716,102.6392729,Taman Seroja,Johor,Parit Jawa,261.0,390000.0,8,0,5,516.7010615181217,72349.2139764053,11812.577031817957,13,516.7010615181217,28
793,19504,1.504936,103.5220585,"Taman Utama, Pekan Nanas",Johor,Pekan Nanas (Pekan Nenas),143.5,250000.0,6,0,1,962.5904230679131,178844.02755678823,10988.847967737596,7,962.5904230679131,28
794,13460,1.488828,103.821409,The Straits View Residences,Johor,Permas Jaya/Senibong,448.5,1790000.0,15,0,1,196.6080392692704,207535.63180964623,5178.7171929549895,16,196.6080392692704,28
795,14019,1.4791249,103.7574302,Aster Court,Johor,Johor Bahru,344.0,308000.0,44,0,10,713.1503339128689,202062.49303246004,670.670326692655,54,670.670326692655,27
796,18357,1.473993,103.7434079,"Kampung Bahru, Johor Bahru",Johor,Johor Bahru,133.0,589000.0,42,0,8,478.1107060778841,201058.1964023296,331.0883050490921,50,331.0883050490921,27
797,13107,1.46946,103.779855,Stulang Laut,Johor,Johor Bahru,201.0,215000.0,18,0,4,949.0080612019439,204741.00918265485,1713.6201474404254,22,949.0080612019439,27
799,18976,2.054317,103.341415,Taman Matahari,Johor,Kluang,103.0,170000.0,8,0,3,481.76983546328864,131941.39416661116,1704.4110830753386,11,481.76983546328864,27
805,18729,1.5225304,103.7001459,Desa Kempas,Johor,Johor Bahru,216.0,200000.0,22,0,3,634.5114573123185,194107.10188904215,2722.462008749599,25,634.5114573123185,26
806,28005,2.0226773,102.5652569,Jalan Junid/Jonid,Johor,Muar,130.5,324000.0,23,0,3,1155.9835990522145,61552.64381517386,1457.8220410805986,26,1155.9835990522145,26
807,28149,1.4650599,103.6553251,Rumah Pangsa Bukit Indah,Johor,Johor Bahru,203.0,150000.0,8,0,1,1369.4808951843565,193472.03034370535,2507.463128701565,9,1369.4808951843565,26
809,12513,1.662009954,103.5930023,Taman Kulai Utama,Johor,Kulai,263.5,444400.0,12,0,1,155.27090535641628,175897.92374798728,4148.293065130648,13,155.27090535641628,26
811,14339,1.467143,103.654375,Indah Court Apartment,Johor,Bukit Indah,312.0,265000.0,7,0,2,1320.3469561356246,193253.77438132733,2286.8927256244683,9,1320.3469561356246,25
812,28030,1.5046085,103.5080271,Kampung Baru Pekan Nenas,Johor,Pekan Nanas (Pekan Nenas),41.0,180000.0,6,0,2,763.9924057235676,177610.58951178938,12502.415417199047,8,763.9924057235676,25
813,18540,1.5124754,103.8801956,"Summer Park Townhouse (Pangsapuri Alam Jaya), Bandar Baru Seri Alam",Johor,Masai,221.0,220000.0,17,0,1,785.3132704607651,211841.36292714992,4289.861317821889,18,785.3132704607651,25
814,18582,0.0,0.0,Taman Bakariah,Johor,Muar,139.0,375000.0,0,0,0,11148747.749698918,11166712.337270323,11152764.067977523,0,11148747.749698918,25
815,12261,1.502682,103.7049851,Taman Desa Rahmat,Johor,Tampoi,134.0,200000.0,22,0,2,260.5973457637985,195744.8463674563,3038.64268356541,24,260.5973457637985,25
816,18882,1.5125598,103.7058297,Taman Kemas,Johor,Johor Bahru,220.0,280000.0,22,0,4,407.7405753465457,195233.09218162106,2325.2773466249632,26,407.7405753465457,25
819,19304,2.0197454,103.0669071,Taman Sri Aman,Johor,Muar,96.0,120000.0,9,0,1,634.9481060557735,105508.45386517576,21754.250265284118,10,634.9481060557735,25
820,13076,1.565126,103.597906,Taman Sri Pulai Perdana 2,Johor,Kangkar Pulai,292.0,500000.0,9,0,1,861.4123842811894,181990.74252997377,4093.699047757462,10,861.4123842811894,25
821,28190,2.4399739,103.8234745,Taman Sutera Harmoni,Johor,Mersing,129.0,255000.0,10,0,2,1245.362407774405,177564.74823420373,2748.8377994035786,12,1245.362407774405,20
823,13448,1.505959988,103.6569977,The Seed @ Sutera Utama,Johor,Skudai,420.0,520000.0,22,0,2,389.5059375931309,191081.3422367618,1470.4834632160887,24,389.5059375931309,25
824,15279,1.47141,103.760183,The Wadihana,Johor,Johor Bahru,261.0,468000.0,39,0,9,592.9809622913086,202781.04119640894,646.9212695985159,48,592.9809622913086,25
826,18558,2.0186466,102.5925095,Taman Amansari,Johor,Johor Bahru,106.5,350000.0,13,0,3,702.4041922791654,63793.44800405469,3379.557780075457,16,702.4041922791654,24
827,18560,1.8368478,102.9300269,Taman Ampang Jaya,Johor,Batu Pahat,232.0,370000.0,19,0,5,786.6385403965999,104464.14297831856,1100.1764337990082,24,786.6385403965999,5
829,28147,1.9124272,103.1873931,"Taman Bukit Indah, Sri Gading",Johor,Ayer Hitam,91.0,108500.0,4,0,1,713.6203191791931,122968.54145265577,19644.594981337155,5,713.6203191791931,24
830,12201,1.8643385,102.9244199,"Taman Damai, Skudai",Johor,Batu Pahat,92.0,110000.0,18,0,6,388.3372359510692,101998.05513717773,736.0317202445309,24,388.3372359510692,23
831,12485,1.503020048,103.6959991,Taman Kobena,Johor,Tampoi,185.0,240000.0,20,0,2,506.0471726010629,194885.5042611333,3800.269837145094,22,506.0471726010629,24
833,19127,2.0513406,102.6463084,"Taman Perwira, Bakri",Johor,Bakri,119.0,340000.0,6,0,2,1047.0721728775054,65187.54640216558,8003.714094292043,8,1047.0721728775054,25
834,11531,1.542770028,103.7279968,Setia Tropika,Johor,Setia Tropika,378.0,620000.0,10,0,2,1327.0251400631828,195555.05164632527,2349.3700056027096,12,1327.0251400631828,390
835,12782,1.542449951,103.5810013,Taman Pulai Indah,Johor,Kangkar Pulai,249.0,380000.0,6,0,1,1171.881750054418,181810.86174404013,4099.355985820769,7,1171.881750054418,388
836,19160,1.6523929,103.5733333,Taman Putri,Johor,Kulai,200.0,330000.0,9,0,0,139.13116155904007,174555.39977948708,5672.874319883386,9,139.13116155904007,378
837,18311,1.642605,103.6094855,Bandar Indahpura,Johor,Kulai,272.5,449900.0,15,0,4,722.3800166579316,178566.00551004233,1507.0929513635665,19,722.3800166579316,388
838,13006,1.508559942,103.6429977,Taman Skudai Baru,Johor,Skudai,245.0,350000.0,18,0,1,442.0309950416797,189626.33517780775,2483.636627594998,19,442.0309950416797,364
839,12836,1.487949967,103.8659973,Taman Rinting,Johor,Masai,194.0,330000.0,20,0,1,210.97380612531322,211840.28930796555,3530.6250478827606,21,210.97380612531322,358
840,12643,1.548329949,103.7809982,Taman Mount Austin,Johor,Johor Bahru,383.0,490000.0,22,0,5,719.6329219080741,200301.7781357359,852.6816230555128,27,719.6329219080741,356
841,18304,1.552895,3.5886619,Bandar Baru Kangkar Pulai,Johor,Kangkar Pulai,192.5,343325.0,0,0,0,10734525.253400868,10750733.461585168,10738692.486029642,0,10734525.253400868,320
842,8840,1.5719599723816,103.73500061035,Bandar Dato Onn,Johor,Johor Bahru,321.5,600000.0,6,0,1,1570.5231401218462,194564.82072122593,5621.709141647631,7,1570.5231401218462,346
843,12041,1.6029538,103.793271,Taman Bestari Indah,Johor,Ulu Tiram,266.0,370000.0,7,0,0,1424.2271336227914,198514.71035011276,5340.227906711646,7,1424.2271336227914,337
844,19144,0.0,0.0,Taman Pulai Jaya,Johor,Johor Bahru,253.0,350000.0,0,0,0,11148747.749698918,11166712.337270323,11152764.067977523,0,11148747.749698918,25
845,19236,2.12758,102.5554,"Taman Selesa, Sungai Mati",Johor,Sungai Mati,173.0,260000.0,8,0,4,351.5441113265679,52072.8229659231,7950.8086334916425,12,351.5441113265679,24
847,19406,2.069609,102.6000631,Taman Sri Terap,Johor,Muar,152.0,330000.0,12,0,5,277.27771130290904,60134.58290627079,3147.5416849084836,17,277.27771130290904,24
848,13455,1.483365,103.66315,The Sky Executive Suites,Johor,Johor Bahru,523.5,412500.0,14,0,2,1099.384134470295,193043.60702571104,1145.4713246620838,16,1099.384134470295,24
849,15407,1.5012268,103.788665,Bayu Marina,Johor,Johor Bahru,375.0,380000.0,15,0,4,707.1203554222201,203711.2068294536,2413.1755908416794,19,707.1203554222201,25
850,28014,1.8821494,102.9731855,Jalan Panchor,Johor,Batu Pahat,231.0,388000.0,9,0,3,978.8175282924919,104964.48382770755,3377.553198314612,12,978.8175282924919,21
852,23899,0.0,0.0,Taman Akasia,Johor,Segamat,51.0,50000.0,0,0,0,11148747.749698918,11166712.337270323,11152764.067977523,0,11148747.749698918,23
853,16636,0.0,0.0,Taman Plentong Utama,Johor,Plentong,119.0,90000.0,0,0,0,11148747.749698918,11166712.337270323,11152764.067977523,0,11148747.749698918,23
856,28057,1.9001259,102.9005103,Taman Soga Sutera,Johor,Batu Pahat,209.0,552957.0,4,0,1,1535.3066048583837,97413.58487507394,5256.350779396962,5,1535.3066048583837,23
859,19515,2.415391,103.8384951,"Taman Wawasan, Mersing",Johor,Mersing,133.0,195000.0,9,0,2,763.7599603081419,179296.4858230472,1714.6598530435333,11,763.7599603081419,23
860,15640,1.462182,103.745215,Golden Sands Seaview Residence,Johor,Johor Bahru,558.0,345000.0,29,0,5,515.698520828847,201940.3212271925,414.21196071148177,34,414.21196071148177,22
861,8822,2.065173,102.589844,Pangsapuri Aroma Park,Johor,Muar,100.0,85500.0,18,0,5,685.1078169335906,59716.82252093395,1911.336656495013,23,685.1078169335906,22
862,29173,1.4841575,103.4283061,Pontian Perdana,Johor,Pontian,131.0,558000.0,8,0,3,1348.6363724509695,171991.70681287526,4978.541130596195,11,1348.6363724509695,22
863,11572,1.547860026,103.7139969,Sky Peak Residences,Johor,Setia Tropika,498.0,512090.0,10,0,1,179.71132785533518,193932.29485889417,3113.7994076710465,11,179.71132785533518,23
864,14974,1.511067,103.683461,Sri Akasia,Johor,Tampoi,316.0,330000.0,22,0,3,655.1495728219575,193230.7390792277,2996.7878503434763,25,655.1495728219575,22
865,18578,2.028062,102.5663393,"Taman Bahagia, Muar",Johor,Muar,98.0,308500.0,28,0,3,549.5741495580725,61156.59770908857,851.312603317433,31,549.5741495580725,22
867,24072,1.6533364,103.5866238,Taman Gemilang Height,Johor,Kulai,246.5,819500.0,12,0,1,784.7815296956396,175772.3708220768,4297.567220072599,13,784.7815296956396,22
871,19360,2.54813,102.766518,"Taman Sri Mewah, Buloh Kasap",Johor,Segamat,147.0,226000.0,3,0,1,560.9872553045755,60719.62051937236,7208.788211203406,4,560.9872553045755,22
872,19363,1.83545,103.3049,"Taman Sri Mewah, Simpang Renggam",Johor,Simpang Renggam,106.5,185000.0,3,0,3,1018.5968791757414,138545.35547619354,21474.0319564185,6,1018.5968791757414,22
875,19421,2.0600636,102.6050001,Taman Sungai Abong Mulia,Johor,Muar,163.0,380000.0,12,0,3,754.5952124762507,61278.51153951333,3396.7451225772547,15,754.5952124762507,23
878,8782,1.5845241,103.7408761,Austin Hills,Johor,Johor Bahru,472.5,330000.0,3,0,1,2552.8105659949556,194430.12078869212,5652.978137072879,4,2552.8105659949556,20
879,28002,2.0258859,102.6095629,Kampung Parit Raja Darat,Johor,Muar,126.5,310000.0,10,0,3,686.0098985993768,64415.24213135949,4825.360890047042,13,686.0098985993768,20
882,29251,0.0,0.0,Taman Bintang Jaya,Johor,Muar,159.5,405800.0,0,0,0,11148747.749698918,11166712.337270323,11152764.067977523,0,11148747.749698918,20
883,12147,1.4970777,103.8557136,Taman Cahaya Kota Putri,Johor,Masai,309.5,1100000.0,15,0,0,337.0049501350401,210341.53142387667,4982.818583150262,15,337.0049501350401,20
886,23598,0.0,0.0,Taman Jaya 2,Johor,Muar,298.5,547500.0,0,0,0,11148747.749698918,11166712.337270323,11152764.067977523,0,11148747.749698918,20
887,9739,0.0,0.0,Taman Murni,Johor,Batu Pahat,114.0,215000.0,0,0,0,11148747.749698918,11166712.337270323,11152764.067977523,0,11148747.749698918,18
888,29169,1.4718155,103.5795062,Taman Nusa Mas,Johor,Gelang Patah,139.0,150000.0,11,0,2,410.80080442699244,186165.42213198086,6488.711942331227,13,410.80080442699244,20
889,12697,1.837360024,102.9489975,Taman Orchard Heights,Johor,Batu Pahat,143.0,92500.0,23,0,5,383.86179135466,106016.00612668158,1018.9760894595927,28,383.86179135466,20
895,19506,2.002149,103.069846,"Taman Utama, Yong Peng",Johor,Yong Peng,141.5,225000.0,8,0,1,1278.6819750831328,106714.4180600243,20430.261916512824,9,1278.6819750831328,22
896,9493,1.488710046,103.723999,Desa Muafakat,Johor,Johor Bahru,196.0,150000.0,29,0,6,646.6629113677961,198360.6005294491,2015.238211115059,35,646.6629113677961,19
898,18757,1.8656584,102.9331953,"Taman Emas, Batu Pahat",Johor,Batu Pahat,188.0,300000.0,24,0,6,1143.4378593585611,102648.35031891725,1469.6111974839032,30,1143.4378593585611,19
900,28007,2.071782,102.5503604,Taman Kesang Mawar,Johor,Muar,114.0,285000.0,7,0,0,337.54460750895356,56277.486332793145,3014.7042312562867,7,337.54460750895356,19
902,12679,1.863870025,102.927002,Taman Nira,Johor,Batu Pahat,117.0,270000.0,22,0,7,607.7866232767922,102250.2483400402,826.7249619817821,29,607.7866232767922,19
903,28048,1.8203167,103.3084214,Taman Rekamas 3,Johor,Simpang Renggam,107.0,160000.0,5,0,2,540.1188569145864,139728.96688497433,23083.617344852755,7,540.1188569145864,19
904,16054,1.501919,103.767183,Taman Seri Setanggi,Johor,Johor Bahru,235.0,200000.0,27,0,7,554.671842593712,201636.53008730192,2148.2478485971324,34,554.671842593712,19
906,9641,1.500339985,103.8130035,"Fair View, Bandar Baru Permas Jaya",Johor,Permas Jaya/Senibong,319.5,326500.0,14,0,2,466.70947185411643,206075.91025089598,4126.076671347529,16,466.70947185411643,18
907,18345,1.6516819,103.5986936,"Flat Temenggong, Bandar Indahpura",Johor,Kulai,84.5,50000.0,14,0,3,602.0724799915257,177021.78842125257,2996.892093390018,17,602.0724799915257,18
909,10593,1.5029025,103.8239456,"Mon Bisca, Bandar Baru Permas Jaya",Johor,Permas Jaya/Senibong,244.0,235000.0,16,0,2,399.48430982776216,206973.46617905307,4562.364593219866,18,399.48430982776216,18
910,24063,1.4958333,103.3836446,Parit Semerah,Johor,Pontian,143.0,450000.0,15,0,2,400.0615388568834,167331.48376936748,419.8992775119485,17,400.0615388568834,18
911,18537,1.4914814,103.8367712,Senibong Villas,Johor,Masai,475.0,1800000.0,19,0,1,552.5345154160862,208846.9567638369,6456.900890755182,20,552.5345154160862,18
912,15030,1.461795506,103.7451625,Sri Samudera Seaview Residence Suites,Johor,Johor Bahru,517.5,337500.0,28,0,5,539.1506887311973,201958.88204729898,373.52848205595933,33,373.52848205595933,18
913,11800,1.480780005,103.7740021,Stulang View,Johor,Johor Bahru,358.0,571500.0,32,0,6,200.99938326500757,203520.5276368964,397.4125819723488,38,200.99938326500757,18
916,12158,1.4880257,103.9083325,Taman Cendana,Johor,Pasir Gudang,130.5,67500.0,18,0,5,307.8371119467752,215903.23137606424,1454.9361217020355,23,307.8371119467752,16
921,18895,2.0334539,102.5570211,Taman Khalidi Bharu,Johor,Batu Pahat,71.0,200000.0,26,0,3,404.25699959802387,60049.49401459519,1170.18588500602,29,404.25699959802387,19
926,19148,0.0,0.0,Taman Purnama 1 Simpang Renggam,Johor,Simpang Renggam,117.0,180000.0,0,0,0,11148747.749698918,11166712.337270323,11152764.067977523,0,11148747.749698918,19
927,28197,1.8795783,102.9478045,Taman Sinar Berlian,Johor,Batu Pahat,305.0,700000.0,13,0,4,13.466345256274591,102924.7193520893,2052.1637357113236,17,13.466345256274591,19
930,9124,1.492619991,103.8499985,D'Carlton Seaview Residences (Seri Mega),Johor,Masai,548.0,510000.0,13,0,0,300.97509946415255,210045.73234408832,5381.592187828917,13,300.97509946415255,17
931,14179,1.4835613,103.7141454,Danga View,Johor,Johor Bahru,395.0,400000.0,18,0,2,1032.988020377664,197752.6679381206,3124.6443392203996,20,1032.988020377664,17
932,9756,1.550863,103.763434,Daya View Apartment,Johor,Johor Bahru,216.0,200000.0,19,0,2,911.5650645175288,198475.15826769065,2233.884749268166,21,911.5650645175288,17
934,28174,1.5183037,103.7845664,Molek Regency,Johor,Johor Bahru,564.0,395860.0,13,0,3,467.320119312088,202340.2012730891,2219.631317378027,16,467.320119312088,17
935,18680,1.885735,102.9531398,Taman Cemerlang Jaya,Johor,Batu Pahat,211.0,430000.0,11,0,5,893.4656181680093,102963.91599223086,2712.379962287787,16,893.4656181680093,17
936,18732,1.376892,103.5922224,Taman Desa Paya Mengkuang,Johor,Johor Bahru,159.0,200000.0,5,0,3,1128.702939792801,193644.24745021344,7290.45161812025,8,1128.702939792801,17
937,16403,1.5145768,103.9230663,Taman Desa Rakyat Perdana,Johor,Pasir Gudang,84.0,60000.0,7,0,2,354.08831194087213,215881.8046257664,4816.072860855006,9,354.08831194087213,17
938,18788,2.2895351,102.5569661,Taman Gunung Emas,Johor,Tangkak,97.0,125000.0,6,0,2,607.2323751216423,41415.95093654728,2241.8463047633586,8,607.2323751216423,17
943,19059,1.828135,103.3030652,"Taman Orkid, Simpang Renggam",Johor,Simpang Renggam,88.0,200000.0,5,0,2,590.5921453326181,138776.59638448656,22303.80553630018,7,590.5921453326181,17
945,12231,1.560979962,103.814003,Taman Desa Cemerlang,Johor,Ulu Tiram,232.0,380000.0,19,0,1,469.72539097209557,202786.797469017,2999.8340116465597,20,469.72539097209557,334
946,12593,1.4882415,103.8534791,Taman Megah Ria,Johor,Masai,205.0,340000.0,13,0,0,328.562305143374,210626.28496662094,4870.853329904663,13,328.562305143374,323
947,12642,1.526059985,103.7900009,Taman Molek,Johor,Johor Bahru,255.5,442500.0,13,0,3,607.5103945353059,202417.40782843527,1173.6484430941166,16,607.5103945353059,286
948,13049,2.029383,103.300418,Taman Sri Kluang,Johor,Kluang,107.0,160000.0,22,0,3,412.6601025428709,128670.36667749577,1629.4870662480528,25,412.6601025428709,307
949,18863,1.577476,103.7755283,JP Perdana (Jaya Putra Perdana),Johor,Johor Bahru,364.0,450000.0,13,0,1,652.393502688102,198162.93089334387,2533.314432640661,14,652.393502688102,298
950,24055,1.466322,103.6182048,Taman Nusa Sentral,Johor,Iskandar Puteri (Nusajaya),407.0,600000.0,0,0,1,3049.8441251102277,190013.9122910544,2542.9593709541614,1,2542.9593709541614,299
951,12281,1.5628509,103.7957946,Taman Desa Tebrau,Johor,Johor Bahru,309.0,580000.0,24,0,3,357.1705092180019,200923.05504371974,1633.0267047675377,27,357.1705092180019,293
952,12729,1.578660011,103.7939987,Taman Pelangi Indah,Johor,Ulu Tiram,244.0,500000.0,13,0,1,752.7593009899439,199887.60697894366,2813.3326823834523,14,752.7593009899439,284
953,12365,1.5528305,103.6782394,Taman Impian Emas,Johor,Skudai,287.5,580000.0,12,0,2,65.137636186132,190258.8750291194,2704.4944077623363,14,65.137636186132,288
954,13016,1.51662004,103.762001,Taman Sri Amar,Johor,Johor Bahru,204.0,270000.0,18,0,4,256.82905740032464,200291.9379070153,3628.842797708463,22,256.82905740032464,17
958,19486,1.8354871,103.299022,Taman Tiara Perdana,Johor,Simpang Renggam,84.0,109890.0,3,0,3,1477.734681889657,137977.82236906773,21572.20228565358,6,1477.734681889657,17
960,19523,1.8520455,103.0989041,"Taman Wira, Parit Raja",Johor,Parit Raja,115.0,355000.0,7,0,3,558.9392530706026,118209.6602892487,16487.809984352443,10,558.9392530706026,17
961,10409,1.4310632,103.6456895,1Medini & Medini Signature,Johor,Iskandar Puteri (Nusajaya),,,5,0,2,917.6933002332863,194772.64538973355,1230.0571933324861,7,917.6933002332863,0
962,23604,0.0,0.0,Bandar Penggaram,Johor,Batu Pahat,152.0,350000.0,0,0,0,11148747.749698918,11166712.337270323,11152764.067977523,0,11148747.749698918,16
964,9339,1.553259969,103.7129974,D'Secret Garden,Johor,Johor Bahru,383.5,437039.0,10,0,1,748.4789558681231,193526.0978412901,3710.56589006977,11,748.4789558681231,16
965,10271,0.0,0.0,Jentayu Residensi,Johor,Tampoi,418.0,400000.0,0,0,0,11148747.749698918,11166712.337270323,11152764.067977523,0,11148747.749698918,17
967,16212,1.5031467,103.73703,Scott Towers,Johor,Johor Bahru,403.0,390000.0,31,0,5,250.3054733443748,198721.28854279796,1483.2642035944332,36,250.3054733443748,16
969,18554,1.7402431,103.9095184,Taman Aman / Mawai,Johor,Kota Tinggi,64.5,60000.0,14,0,2,476.7601606752333,203521.7836491894,1215.4997117890618,16,476.7601606752333,16
970,10327,0.0,0.0,Taman Bendahara,Johor,Segamat,91.0,160000.0,0,0,0,11148747.749698918,11166712.337270323,11152764.067977523,0,11148747.749698918,3
975,18965,0.0,0.0,Taman Maluri,Johor,Ulu Tiram,164.5,330000.0,0,0,0,11148747.749698918,11166712.337270323,11152764.067977523,0,11148747.749698918,16
980,19314,1.7904734,103.3116898,"Taman Sri Bayu, Simpang Renggam",Johor,Simpang Renggam,103.0,195000.0,4,0,1,617.0591247022586,141746.89243577683,26330.519638864967,5,617.0591247022586,16
982,28058,2.002228,102.5992072,Taman Sri Lantapuri,Johor,Muar,187.5,348000.0,7,0,2,711.9799757823827,65670.13270145337,5128.273222093604,9,711.9799757823827,16
984,19420,2.0584491,102.5792258,Taman Sungai Abong Indah,Johor,Muar,238.0,459000.0,30,0,6,661.5985788675297,59482.805001965426,532.8250237842833,36,532.8250237842833,16
985,28170,2.0615984,102.6087251,"Taman Sutera, Sungai Abong",Johor,Muar,48.0,130000.5,10,0,2,971.565206727443,61440.65578332137,3827.378676298514,12,971.565206727443,18
986,29151,2.0553129,102.5931288,Jalan Haji Abdullah,Johor,Muar,460.0,988000.0,27,0,6,436.14676706588733,60769.34598639591,2071.832197199532,33,436.14676706588733,15
988,16172,1.652787,103.5836329,Rose Villa Apartment,Johor,Kulai,147.0,125000.0,12,0,1,726.1152780387245,175517.18929447964,4588.924606291461,13,726.1152780387245,15
989,16189,1.541011,103.818868,Rumah Pangsa Sri Orkid,Johor,Johor Bahru,127.0,90000.0,19,0,2,695.4164203345904,204351.9653212206,2553.9669721347095,21,695.4164203345904,15
990,16282,1.469352389,103.6529333,Sky View,Johor,Bukit Indah,546.0,480000.0,9,0,2,1278.0305356248762,192982.69031136896,2019.7426428272456,11,1278.0305356248762,15
991,16286,1.462224519,103.7705469,Skysuites @ Meldrum Hills,Johor,Johor Bahru,688.0,420000.0,21,0,6,941.3382209852979,204300.69382961822,1284.7487772692073,27,941.3382209852979,15
992,16294,1.496724113,103.7765591,SouthKey Mosaic,Johor,Johor Bahru,667.0,680000.0,20,0,6,445.9933264322761,202825.9583991621,1394.3405374202753,26,445.9933264322761,15
993,12049,1.8626543,102.9769577,Taman Broleh,Johor,Batu Pahat,130.0,210000.0,9,0,2,629.2738133977516,106626.24359650796,2891.9622987554576,11,629.2738133977516,15
994,18733,2.0077012,103.0653868,Taman Desa Puteh,Johor,Yong Peng,155.0,220000.0,9,0,1,667.3598241267202,105985.60951635346,20591.792988710873,10,667.3598241267202,15
996,18789,2.0301265,103.3341237,Taman Gunung Lambak,Johor,Kluang,128.0,250000.0,20,0,8,809.3202317909457,132126.71429714828,343.20892828133327,28,343.20892828133327,15
997,18804,1.8368976,103.3047589,"Taman Harmoni, Simpang Renggam",Johor,Simpang Renggam,84.0,120000.0,3,0,2,1162.768213693992,138451.57683004808,21317.826596090894,5,1162.768213693992,15
999,12482,2.044179916,103.3190002,Taman Kluang,Johor,Kluang,112.0,200000.0,18,0,6,673.7605390888716,129997.73085068082,1011.224759667783,24,673.7605390888716,15
1002,23521,1.999219,102.60843,Taman Limbong Harmoni,Johor,Muar,109.5,391000.0,7,0,4,473.27254991333103,66577.67398405922,6099.994647808759,11,473.27254991333103,16
1003,19084,1.9974467,102.6127739,Taman Parit Unas Permai,Johor,Muar,114.0,265000.0,9,0,6,949.5699493966164,67037.04670647562,6594.3589670588235,15,949.5699493966164,15
1007,28056,1.8482116,102.9593788,Taman Soga Perdana,Johor,Batu Pahat,279.0,428240.0,22,0,5,1043.5494924585655,106120.19806838677,1721.5159133525337,27,1043.5494924585655,15
1010,13128,1.8158783,103.3182189,"Taman Suria, Simpang Renggam",Johor,Simpang Renggam,104.0,160000.0,6,0,2,472.40230151003004,140917.14434001868,23473.890146535985,8,472.40230151003004,15
1011,13916,1.4648628,103.7378711,Aloha Tower Condominium,Johor,Johor Bahru,272.5,429000.0,28,0,6,148.0724391387804,201094.4875666502,1137.2422508229502,34,148.0724391387804,14
1013,9051,1.4681575,103.7661248,Bukit Chagar Luxurious Apartment (Pine View Luxurious Apartment),Johor,Johor Bahru,654.0,570000.0,34,0,7,411.9043281418556,203531.70441645806,789.6077389133794,41,411.9043281418556,14
1014,18368,1.5006254,103.6128055,Kampung Baru Lima Kedai,Johor,Johor Bahru,73.0,150000.0,8,0,1,679.2044935318249,187342.852460845,3638.895204579992,9,679.2044935318249,14
1015,18429,1.6041689,103.8047797,Kampung Oren,Johor,Ulu Tiram,96.0,150000.0,9,0,1,693.0000885529499,199575.3429125388,5876.495330748951,10,693.0000885529499,14
1017,18508,1.4691778,103.6847302,Pangsapuri Ria,Johor,Masai,267.0,310000.0,11,0,1,792.1889582059176,195911.64749479882,3883.959553752418,12,792.1889582059176,14
1018,23885,1.3757386,103.5906413,Pines Residence,Johor,Gelang Patah,389.5,375000.0,5,0,3,1342.909340244621,193585.55039308075,7502.683117351778,8,1342.909340244621,14
1019,17198,1.5074722,103.8620833,Sapphire 8 @ Bandar Seri Alam,Johor,Masai,396.5,645000.0,19,0,0,701.074775203157,210372.02135491758,5042.941152886555,19,701.074775203157,14
1021,18889,0.0,0.0,Taman Kenari,Johor,Pagoh,64.0,72500.0,0,0,0,11148747.749698918,11166712.337270323,11152764.067977523,0,11148747.749698918,14
1023,18960,1.6832347,3.1565137,"Taman Maju Jaya, Rengit",Johor,Rengit,123.5,199000.0,0,0,0,10780963.94152765,10796909.381227309,10785152.644922877,0,10780963.94152765,14
1028,19169,1.8177491,103.3101162,Taman Rekamas,Johor,Simpang Renggam,79.5,146000.0,6,0,2,790.7156639239244,140035.8926045004,23345.08539335163,8,790.7156639239244,14
1031,19496,2.0646547,102.5541578,Taman Tun Syed Nasir,Johor,Muar,58.0,75000.0,22,0,4,216.12334786614423,57153.96477122333,2302.2207103445485,26,216.12334786614423,14
1032,15361,1.5676946,103.7541599,Apartment Setia Baiduri,Johor,Johor Bahru,152.0,100000.0,9,0,0,243.16839874698783,196642.81964799386,3458.042064542598,9,243.16839874698783,13
1033,23909,0.0,0.0,Laman Indah 1,Johor,Iskandar Puteri (Nusajaya),139.0,150000.0,0,0,0,11148747.749698918,11166712.337270323,11152764.067977523,0,11148747.749698918,13
1034,9214,1.483938,103.684525,Perling Apartment,Johor,Johor Bahru,299.0,368000.0,16,0,1,52.00845010594804,194981.025406353,3015.2764073665,17,52.00845010594804,13
1039,18725,0.0,0.0,Taman Desa Idaman,Johor,Senai,184.0,265000.0,0,0,0,11148747.749698918,11166712.337270323,11152764.067977523,0,11148747.749698918,13
1043,12385,2.458719969,103.8199997,Taman Intan Jaya,Johor,Mersing,102.0,135000.0,4,0,2,844.12364044823,177159.0424810847,4347.13573468656,6,844.12364044823,14
1047,18992,1.8529225,103.0988782,Taman Melewar,Johor,Parit Raja,146.0,225000.0,7,0,3,464.98357200094904,118151.85232780555,16479.194250469853,10,464.98357200094904,13
1053,13560,1.477946,103.761983,Twin Galaxy,Johor,Johor Bahru,625.0,385000.0,40,0,10,820.7891481231284,202559.58696305446,318.1732586113397,50,318.1732586113397,13
1054,28195,1.5291655,103.5814423,Taman Pulai Mutiara,Johor,Kangkar Pulai,348.0,448800.0,2,0,0,2640.384261760433,182678.51780638873,3950.0226480006177,2,2640.384261760433,277
1055,11465,1.581660032,103.7490005,Seri Austin,Johor,Johor Bahru,386.0,600000.0,4,0,0,1881.6928361312432,195371.4580297738,4733.563577459028,4,1881.6928361312432,272
