,project_id,latitude,longitude,township,state,area,median_psf,median_price,poi_nearby_education,poi_nearby_transportation,poi_nearby_healthcare,nearest_school,nearest_train_station,nearest_hospital,total_poi_nearby,nearest_poi,transaction_count
1,28054,1.8508385,103.0985005,Taman Melewar 2,Johor,Parit Raja,32.5,140000.0,7,0,3,702.136113921282,118252.66994133467,16451.532366955136,10,702.136113921282,2
3,19000,2.4241923,103.8370822,Taman Mersing,Johor,Mersing,92.5,290000.0,10,0,2,583.6774276512322,179113.58638790736,1102.221381036585,12,583.6774276512322,4
4,19009,2.50248,102.83199,"Taman Mewah, Sungai Segamat",Johor,Segamat,58.0,160000.0,16,0,4,473.26089198831386,67413.07373590601,1875.2751878175231,20,473.26089198831386,3
5,19036,1.9895953,102.8732944,"Taman Mutiara, Parit Sulong",Johor,Parit Sulong,147.0,368800.0,7,0,2,637.406345590897,88944.03126894942,15547.190897108767,9,637.406345590897,3
9,28046,2.1098055,103.3962741,Taman Perdana,Johor,Kluang,102.0,235000.0,4,0,1,382.8487111118322,135798.1062025333,10308.194046673114,5,382.8487111118322,4
10,19102,1.8499264,102.9497359,"Taman Perdana, Batu Pahat",Johor,Batu Pahat,143.0,220000.0,25,0,5,126.01934028141807,105180.36161487226,1261.0852772881221,30,126.01934028141807,3
11,19108,2.5377096,102.831385,Taman Permai 3,Johor,Segamat,142.0,110000.0,5,0,3,830.8727729180296,67707.05311407032,4017.271329374391,8,830.8727729180296,3
12,19111,2.5346292,102.8305106,"Taman Permai, Segamat",Johor,Segamat,117.0,210000.0,8,0,3,554.5515343179442,67570.02462038968,3669.4657477904807,11,554.5515343179442,4
13,19137,1.49598,103.75989,Taman PKEINJ,Johor,Johor Bahru,150.0,300000.0,39,0,9,251.05331066977521,201299.20607727946,1752.775191831349,48,251.05331066977521,3
15,28109,1.6837751,103.1579509,"Taman Ria, Rengit",Johor,Rengit,132.5,375000.0,5,0,0,818.5514039599437,134737.53653351127,29546.47337613922,5,818.5514039599437,4
16,19194,2.38381,102.91729,"Taman Ros (Taman Pahlawan), Labis",Johor,Labis,137.0,225000.0,2,0,1,68.3416097735745,77266.2436408088,17567.637086092127,3,68.3416097735745,4
17,19211,0.0,0.0,Taman Santalia,Johor,Batu Pahat,124.0,209000.0,0,0,0,11148747.730357049,11166707.407256505,11152762.883457733,0,11148747.730357049,4
20,19229,2.4560565,102.9787756,"Taman Segar, Labis",Johor,Labis,77.5,125000.0,4,0,2,2393.1399757846557,83604.22675761246,18970.27831382695,6,2393.1399757846557,4
21,19230,1.8557763,102.9322883,Taman Sejahtera,Johor,Batu Pahat,154.0,180000.0,25,0,7,621.3452085404189,103282.50485913163,1128.4657323331915,32,621.3452085404189,4
22,19231,2.400809,103.0149391,Taman Sejati,Johor,Labis,91.5,200000.0,7,0,1,851.040445895632,87896.57110741112,25018.797667139766,8,851.040445895632,4
23,28171,1.4955148,103.4173617,Taman Selesa Jaya,Johor,Pontian,141.5,242500.0,7,0,2,733.7609039683427,170258.55881526638,3511.052725812626,9,733.7609039683427,4
24,12899,2.006609917,103.0670013,Taman Sembrong,Johor,Yong Peng,80.5,175000.0,9,0,1,885.060129840215,106203.99966687238,20612.520975857035,10,885.060129840215,4
26,19258,0.0,0.0,Taman Seri Bayu,Johor,Simpang Renggam,148.0,357500.0,0,0,0,11148747.730357049,11166707.407256505,11152762.883457733,0,11148747.730357049,4
28,19285,2.5037697,102.8223478,Taman Sia Her Yam,Johor,Segamat,68.0,112500.0,14,0,5,612.8180705655562,66352.38037007184,794.3823916129516,19,612.8180705655562,4
29,19301,2.39638,103.02017,Taman Soon Cheong,Johor,Labis,72.0,140000.0,7,0,1,254.06627197191995,88516.3248510268,25761.43974056126,8,254.06627197191995,4
30,19305,2.0219161,103.0681081,Taman Sri Aman II,Johor,Yong Peng,112.5,206500.0,9,0,1,806.5617779363816,105518.39443672022,22030.35457782989,10,806.5617779363816,4
35,23589,0.0,0.0,Taman Sri Setongkat,Johor,Muar,103.5,208500.0,0,0,0,11148747.730357049,11166707.407256505,11152762.883457733,0,11148747.730357049,4
37,19441,2.0776745,102.5821114,"Taman Suria, Muar",Johor,Muar,84.5,170000.0,12,0,4,445.486105601602,58121.34408221435,2352.983296700079,16,445.486105601602,4
39,13159,2.022690058,103.314003,Taman Tasik,Johor,Kluang,152.0,627500.0,27,0,6,571.8255894622184,130351.30749532902,1271.4748531167268,33,571.8255894622184,4
41,19501,1.8652963,102.9335666,Taman Usaha Jaya,Johor,Batu Pahat,70.0,315000.0,25,0,6,1091.27661874301,102709.46709601914,1486.235292250254,31,1091.27661874301,4
44,8561,1.501430035,103.7659988,1Tebrau (One Tebrau Residence),Johor,Johor Bahru,569.0,355000.0,26,0,9,430.0233857692334,201556.36682149066,2160.7094290419573,35,430.0233857692334,3
45,8620,1.4270043,103.634692,Afiniti,Johor,Iskandar Puteri (Nusajaya),796.0,600000.0,9,0,2,888.6662762865923,194050.89022291303,80.15947624576222,11,80.15947624576222,3
46,24074,1.491047,103.8860917,Bandar Alam Masai,Johor,Masai,260.0,729800.0,20,0,3,154.30476914429704,213597.87464308605,1889.2483005746421,23,154.30476914429704,3
47,15432,1.5979563,103.639249,Bukit Senang Court,Johor,Senai,206.5,240000.0,6,0,1,380.2027982788844,183949.56025760874,4921.391598467073,7,380.2027982788844,2
49,24848,1.4637104,103.7262429,Country Garden @ Danga Bay,Johor,Johor Bahru,693.0,1030000.0,13,0,3,795.1865052016004,200088.21843250474,2150.910244048219,16,795.1865052016004,3
50,24073,1.4914873,103.9307002,Eco Tropics,Johor,Pasir Gudang,220.0,539960.0,11,0,0,511.0758430229809,217876.452877826,3553.8821255132348,11,511.0758430229809,3
51,24048,1.4906535,103.7257035,Epic,Johor,Johor Bahru,601.0,724000.0,29,0,6,361.74415152576603,198406.4716045746,1818.3808147726002,35,361.74415152576603,3
52,27992,1.7527179,103.8898184,Jalan Lombong,Johor,Kota Tinggi,12.0,80000.0,10,0,2,1100.7041328057246,200966.95657025438,2123.244627974242,12,1100.7041328057246,3
53,18359,1.69917,103.48528,Kampung Baru Ayer Bemban,Johor,Kulai,15.0,110000.0,2,0,1,80.06373993944746,163496.5444298894,16655.93353882592,3,80.06373993944746,3
55,28015,1.8127213,103.4773572,Kampung Baru Layang-Layang,Johor,Layang Layang,39.0,90000.0,4,0,2,406.66403461667164,156587.2245687134,25086.68786490142,6,406.66403461667164,3
56,18375,0.0,0.0,Kampung Baru Renggam,Johor,Rengam,55.0,60000.0,0,0,0,11148747.730357049,11166707.407256505,11152762.883457733,0,11148747.730357049,3
57,28016,2.7007349,102.6831278,Kampung Baru Simpang Renggam,Johor,Batu Pahat,35.0,130000.0,3,0,1,358.53537466938747,57105.15283451215,26150.591205976107,4,358.53537466938747,3
59,18410,1.4964405,103.756198,Kampung Kurnia,Johor,Johor Bahru,61.0,400000.0,37,0,9,647.4099870775985,200924.2527207148,1697.927265832959,46,647.4099870775985,3
61,22884,1.472141,103.87861,Kampung Pasir Gudang Baru,Johor,Masai,17.0,99249.0,12,0,4,1538.044407322851,213943.28368030567,1987.1217711857025,16,1538.044407322851,3
62,18471,1.5292224,103.6992587,Kempas Banjaran,Johor,Johor Bahru,84.0,485000.0,20,0,3,942.3631287321896,193631.04430360487,2939.193461752315,23,942.3631287321896,3
64,10287,1.426100016,103.6080017,Ledang Heights,Johor,Ledang Heights,216.0,2500000.0,7,0,0,643.0420582208418,191722.39398407371,3051.8221698255084,7,643.0420582208418,3
65,14507,1.499345,103.821917,"Mon Glori, , Bandar Baru Permas Jaya",Johor,Permas Jaya/Senibong,276.0,235000.0,16,0,2,172.4549984227224,206985.40503576532,4728.153748051502,18,172.4549984227224,3
66,18731,1.5496831,103.7328015,Pangsapuri Palma @ Nasa City Desa Palma,Johor,Johor Bahru,596.0,767800.0,11,0,1,904.5657166125959,195618.6906486203,3216.2787029990814,12,904.5657166125959,3
67,18507,2.0430463,102.5811428,Pangsapuri Permata,Johor,Kulai,170.0,168000.0,30,0,8,451.9582337177497,60916.951827136276,1707.9686824487453,38,451.9582337177497,3
68,24054,1.4904105,103.8304717,Pangsapuri Pinggiran Air,Johor,Masai,539.0,650000.0,17,0,1,660.704786957963,208310.677671153,6089.6709905697935,18,660.704786957963,3
71,28101,1.4602474,103.9087984,Perumahan Bakti,Johor,Pasir Gudang,177.0,170000.0,10,0,4,106.4102545562974,217502.69437266013,1048.8152799593724,14,106.4102545562974,3
72,16109,1.475523904,103.7685299,Plaza Mentari Apartment (Sun City),Johor,Johor Bahru,315.0,580000.0,36,0,5,360.3401728229419,203321.0959360564,799.7542240355126,41,360.3401728229419,3
73,18532,1.4649018,103.7721847,Puteri Indah Court,Johor,Batu Pahat,298.0,425000.0,22,0,5,961.3825230375762,204296.91228369222,1416.6655575008178,27,961.3825230375762,3
74,29154,2.304256,102.5985792,Sagil,Johor,Tangkak,159.0,245000.0,3,0,2,1100.8173690009382,44907.01920479561,6749.09247964607,5,1100.8173690009382,3
75,17205,1.4777853,103.6586453,Sky Breeze,Johor,Johor Bahru,533.0,700000.0,11,0,2,828.4955202215592,192980.3711711707,1662.1128783255942,13,828.4955202215592,3
76,16329,1.5096756,103.6823157,Sri Wangi Apartment,Johor,Tampoi,290.0,300000.0,22,0,2,743.4358077319108,193211.1982686535,3035.8912413368234,24,743.4358077319108,3
79,23539,0.0,0.0,"Taman Bakariah Indah, Muar",Johor,Muar,161.0,280000.0,0,0,0,11148747.730357049,11166707.407256505,11152762.883457733,0,11148747.730357049,3
85,18623,1.71605,103.08861,"Taman Bestari, Senggarang",Johor,Senggarang,110.0,170000.0,2,0,1,1238.883881928531,126543.97373456834,21225.891793823088,3,1238.883881928531,3
87,28146,2.4798892,102.8533199,"Taman Bukit Indah 3, Pogoh",Johor,Segamat,187.0,430000.0,11,0,1,420.86238232927525,69670.86534185756,5064.582370884244,12,420.86238232927525,3
89,12122,1.4956887,103.8597537,Taman Bukit Rinting,Johor,Masai,149.0,1400000.0,20,0,1,285.15010095187887,210809.93513302054,4510.39564332598,21,285.15010095187887,3
91,23576,0.0,0.0,Taman Bunga Cempaka,Johor,Tangkak,103.0,80000.0,0,0,0,11148747.730357049,11166707.407256505,11152762.883457733,0,11148747.730357049,3
92,12157,1.867443,102.9724397,Taman Cempaka Putih,Johor,Batu Pahat,195.0,300000.0,10,0,2,659.1353375056879,105906.82615627201,2481.445126185987,12,659.1353375056879,3
94,18696,2.48693,102.85379,"Taman Damai Jaya, Pagoh",Johor,Pagoh,122.0,183000.0,11,0,2,577.4176528262904,69747.7174527707,4727.5121515283745,13,577.4176528262904,3
96,23525,1.840319,102.929644,"Taman Delima, Batu Pahat",Johor,Batu Pahat,288.0,565000.0,21,0,6,518.4217625172341,104181.80115283302,1227.6016659619734,27,518.4217625172341,3
99,18765,0.0,0.0,Taman Era,Johor,Simpang Renggam,195.0,400000.0,0,0,0,11148747.730357049,11166707.407256505,11152762.883457733,0,11148747.730357049,3
101,12687,1.496719956,103.9029999,Taman Nusa Damai,Johor,Pasir Gudang,173.0,287500.0,21,0,3,435.3170966454672,214912.45718620784,2271.3058137835305,24,435.3170966454672,114
102,23908,2.5274938,102.8041432,Taman Tasik Sejati,Johor,Segamat,133.0,225000.0,12,0,4,830.0070595078859,64567.253680725924,2765.7685830204737,16,830.0070595078859,107
103,24623,1.8462884,103.6198597,Taman Anggerik Tenggara,Johor,Kulai,104.0,150000.0,6,0,2,939.4861987325454,169291.42892605535,22902.7486643138,8,939.4861987325454,108
105,16689,1.8611707,103.0057528,Taman Mutiara Perdana,Johor,Batu Pahat,237.0,438000.0,7,0,2,808.9261750344058,109253.85505764054,6091.867761940203,9,808.9261750344058,103
106,12685,1.480631,103.6664973,Taman Nusa Bestari 1,Johor,Johor Bahru,368.0,530000.0,11,0,1,625.8657371777264,193524.9724356684,1591.7932697382007,12,625.8657371777264,106
107,19146,1.8517206,103.0225954,Taman Pura Kencana,Johor,Seri Gading,239.0,467000.0,6,0,1,155.39359918147431,111376.75946739322,8035.343818352471,7,155.39359918147431,99
108,28188,1.9995844,103.3136367,Taman Setia Mutiara,Johor,Kluang,198.0,355000.0,14,0,2,1146.0825876775361,131291.05921814486,3563.6193041273514,16,1146.0825876775361,97
113,18828,0.0,0.0,Taman Industri Jaya,Johor,Skudai,103.0,80000.0,0,0,0,11148747.730357049,11166707.407256505,11152762.883457733,0,11148747.730357049,3
116,18876,2.4830228,102.8533231,"Taman Kekwa, Pagoh",Johor,Pagoh,97.0,150000.0,11,0,1,287.5879280878139,69681.09915091076,4882.2662976613665,12,287.5879280878139,3
117,24033,0.0,0.0,Taman Kiara,Johor,Paloh,92.0,315000.0,0,0,0,11148747.730357049,11166707.407256505,11152762.883457733,0,11148747.730357049,3
118,18897,2.05148,102.57547,Taman Kim Kee,Johor,Muar,27.0,30000.0,34,0,6,124.4131529249281,59797.593129885,643.3583657064532,40,124.4131529249281,3
129,23492,0.0,0.0,Taman Medan Bunga Cempaka Baru,Johor,Muar,59.5,44750.0,0,0,0,11148747.730357049,11166707.407256505,11152762.883457733,0,11148747.730357049,2
131,29153,2.3013541,102.6127238,Taman Mesra Rakyat,Johor,Tangkak,130.0,250000.0,4,0,2,594.8948255169461,46481.35269091764,7988.490999762451,6,594.8948255169461,3
132,19015,0.0,0.0,Taman Midori,Johor,Simpang Renggam,64.0,50000.0,0,0,0,11148747.730357049,11166707.407256505,11152762.883457733,0,11148747.730357049,3
134,16701,0.0,0.0,Taman Mutiara Indah,Johor,Pontian,105.0,340000.0,0,0,0,11148747.730357049,11166707.407256505,11152762.883457733,0,11148747.730357049,3
135,16720,0.0,0.0,Taman Mutiara Jaya,Johor,Pontian,90.0,220000.0,0,0,0,11148747.730357049,11166707.407256505,11152762.883457733,0,11148747.730357049,2
136,19035,2.0589799,102.5901486,"Taman Mutiara, Bandar Maharani",Johor,Muar,209.0,400000.0,27,0,4,585.8588196518267,60250.333354220755,1736.807667944854,31,585.8588196518267,3
138,19055,1.87139,102.97784,"Taman Orkid, Batu Pahat",Johor,Batu Pahat,109.0,80000.0,7,0,1,138.93616628582586,106107.91476449439,3189.4080594633688,8,138.93616628582586,3
139,19072,2.39275,103.86525,"Taman Pantai, Mersing",Johor,Mersing,118.0,155000.0,2,0,0,821.2080931238626,182363.29948335624,4573.530772336975,2,821.2080931238626,3
143,19112,1.5068281,103.8165427,Taman Permas Indah,Johor,Permas Jaya/Senibong,299.0,1800000.0,14,0,2,352.58196614556454,206046.83935177542,3707.203970007998,16,352.58196614556454,3
147,19181,1.875717,102.964458,"Taman Ria, Batu Pahat",Johor,Batu Pahat,139.0,190000.0,16,0,4,1026.0806563011295,104642.45427575728,2190.327471183762,20,1026.0806563011295,3
148,28106,1.735415,103.9046581,"Taman Ria, Kota Tinggi",Johor,Kota Tinggi,146.0,225000.0,15,0,2,807.5563976557091,203238.40310926613,589.8147208074571,17,589.8147208074571,3
150,19240,1.88482,103.15274,Taman Semarang,Johor,Parit Raja,60.0,50000.0,4,0,1,234.71921609124118,121221.95702954651,22596.353317426896,5,234.71921609124118,3
151,28187,2.0558752,103.3454712,Taman Seri Makmur,Johor,Kluang,150.0,417000.0,8,0,3,343.5646386060749,132308.89669144526,2098.229831924787,11,343.5646386060749,3
152,29250,2.0314075,102.5853683,Taman Siantan Megah,Johor,Muar,94.0,327000.0,26,0,5,980.1963811193426,62204.56959389343,2069.2551472165433,31,980.1963811193426,1
154,19291,1.83077,103.30464,Taman Simpang Renggam,Johor,Simpang Renggam,133.5,370000.0,5,0,3,685.0268416458022,138783.68468518625,21990.21342520146,8,685.0268416458022,2
156,19303,2.558207,102.7362164,Taman Sri Alam II,Johor,Batu Anam,162.0,250000.0,2,0,0,2241.472573657574,57584.75691435067,10575.324285678993,2,2241.472573657574,3
158,11570,1.8898267,102.9494251,Taman Sri Idaman,Johor,Batu Pahat,155.0,255000.0,7,0,4,1131.9079304162706,102362.74580315888,3163.6324192923876,11,1131.9079304162706,3
165,28111,1.6006941,103.8208575,Taman Sri Tiram,Johor,Ulu Tiram,115.0,170000.0,7,0,1,235.2916608520314,201335.03718949124,6523.178850353103,8,235.2916608520314,3
166,19411,2.00502,103.07912,"Taman Sri Wangi, Yong Peng",Johor,Yong Peng,110.0,140000.0,8,0,1,1412.5366163555873,107474.59795494484,21351.240031352005,9,1412.5366163555873,3
170,19467,2.508122,102.8353218,"Taman Tasik, Segamat",Johor,Segamat,81.0,140000.0,18,0,4,224.45262835928,67825.40644147375,2246.256376467186,22,224.45262835928,3
175,23537,0.0,0.0,"Taman Wawasan, Muar",Johor,Muar,97.0,310250.0,0,0,0,11148747.730357049,11166707.407256505,11152762.883457733,0,11148747.730357049,3
177,23893,1.3949716,103.6385495,Avira Garden Terraces @ Medini,Johor,Iskandar Puteri (Nusajaya),523.5,1485500.0,4,0,0,298.2149438418177,196507.2531659382,3484.083746418687,4,298.2149438418177,2
181,23959,1.8426485,102.9413086,Desa Garden (D' Garden),Johor,Batu Pahat,369.0,633850.0,23,0,6,332.1722693318976,104990.07608007474,714.0050768635788,29,332.1722693318976,2
182,15648,1.4261013,103.6388987,Grand Medini,Johor,Iskandar Puteri (Nusajaya),876.0,500000.0,9,0,2,446.0326100516074,194487.67624178622,365.5549871705104,11,365.5549871705104,2
183,29145,1.8525639,102.9370468,Jalan Dato Haji Hassan,Johor,Batu Pahat,60.0,225000.0,27,0,7,733.8932985691904,103915.69538689214,1737.3160257443549,34,733.8932985691904,1
184,29170,2.1009035,102.4973059,Jalan Kesang Laut,Johor,Muar,45.0,330000.0,3,0,0,2066.331313393888,50095.51693641094,9740.159847746969,3,2066.331313393888,2
189,29152,0.0,0.0,Kampung Baru Chamek,Johor,Kluang,28.5,120000.0,0,0,0,11148747.730357049,11166707.407256505,11152762.883457733,0,11148747.730357049,2
190,18364,2.212087,103.54209,Kampung Baru Kahang,Johor,Bekok,68.5,217500.0,3,0,1,263.97252855228516,148878.9951550985,29917.853759914215,4,263.97252855228516,2
193,28019,2.0281976,103.3489864,Kampung Gunung Lambak,Johor,Kluang,16.5,71000.0,12,0,5,1375.8957813898328,133747.96537004234,1863.3478416375165,17,1375.8957813898328,2
197,18416,1.4475389,103.5837129,Kampung Melayu Gelang Patah,Johor,Gelang Patah,20.5,140000.0,8,0,1,555.115019981034,188138.37678351108,6186.51433920644,9,555.115019981034,2
200,18494,1.5066525,103.8685847,Octville Condominium,Johor,Masai,368.0,525000.0,21,0,1,200.68722050037115,211046.28035036303,4460.916710949925,22,200.68722050037115,2
201,28176,1.5086911,103.717741,Pangsapuri Dwi Alif,Johor,Johor Bahru,251.0,264100.0,25,0,4,962.6701359368337,196583.80303805115,1637.7880118922585,29,962.6701359368337,2
202,16277,1.471062,103.762499,Pangsapuri Seri Kencana Setia (SKS Pavillion Residences),Johor,Johor Bahru,753.5,559625.0,39,0,7,498.0241729269761,203021.8988710048,695.7533151359756,46,498.0241729269761,2
204,16067,1.468477,103.77047,Paragon Suites,Johor,Johor Bahru,553.0,500000.0,26,0,6,539.2717054082053,203922.75206234487,1265.8635321793122,32,539.2717054082053,2
205,28006,2.0229837,102.5704114,Parit Peropok,Johor,Muar,96.5,357500.0,24,0,3,1121.5815641673214,61882.329681833806,1453.6965391775639,27,1121.5815641673214,2
206,18530,1.5050896,103.6199192,Perumahan Rakyat Lima Kedai,Johor,Skudai,100.5,70000.0,11,0,1,268.9925953110699,187718.7992502044,3143.9519743257624,12,268.9925953110699,2
207,16182,1.65072,103.606733,Rumah Pangsa Kulai,Johor,Kulai,75.0,41000.0,16,0,3,316.78787404433467,177850.1497651917,2176.7927304505793,19,316.78787404433467,2
210,13183,1.571709991,103.6110001,Taman Teratai,Johor,Skudai,177.0,240000.0,5,0,1,772.7348110936632,182822.56148842975,4290.100966036374,6,772.7348110936632,101
211,18917,2.02047,103.0805726,Taman Kota Impian,Johor,Yong Peng,207.5,350000.0,8,0,0,952.7247790124918,106822.79199451483,22753.899844309275,8,952.7247790124918,96
212,28160,1.5918473,103.7639022,Taman Eco Flora,Johor,Johor Bahru,440.5,732500.0,2,0,0,2559.2325827004747,196256.95957277608,4511.814543988115,2,2559.2325827004747,100
213,28052,1.8654133,102.9885392,Taman Mutiara Gading,Johor,Batu Pahat,342.0,479900.0,6,0,1,689.6490250870463,107452.67227746737,4201.8229922623195,7,689.6490250870463,93
214,13136,1.480540037,103.6910019,Taman Sutera,Johor,Johor Bahru,281.5,604000.0,15,0,1,411.86120400771046,195792.412488657,3823.7182133010397,16,411.86120400771046,90
215,12103,1.518939972,103.689003,Taman Bukit Mewah,Johor,Johor Bahru,300.0,380000.0,23,0,3,179.6488366513089,193279.26508988265,2921.8140117314074,26,179.6488366513089,99
216,19299,1.8382055,102.9314751,Taman Soga,Johor,Batu Pahat,137.0,125000.0,19,0,5,579.6984505260085,104489.18682244355,964.6104743081744,24,579.6984505260085,95
217,24543,1.5949767,103.7333949,Austin Duta,Johor,Johor Bahru,401.0,741000.0,1,0,1,2353.706577910866,193135.14561393307,7005.743551519725,2,2353.706577910866,88
218,18659,1.540637,103.7424154,Taman Bukit Mutiara,Johor,Johor Bahru,187.0,270000.0,10,0,2,118.25806434709405,197051.75981282603,2875.310075753603,12,118.25806434709405,21
220,18577,2.651528,103.6262063,"Taman Bahagia, Endau",Johor,Endau,67.5,70000.0,6,0,2,127.58931948656632,156979.69416840744,34648.97554028129,8,127.58931948656632,2
222,29161,2.0201104,103.2928907,Taman Berlian Biru 2,Johor,Kluang,153.0,393800.0,18,0,2,532.5525810543081,128284.9389574105,2933.5120114030383,20,532.5525810543081,2
226,18711,1.443041,103.5929024,Taman Dato Syed Mohd Edros,Johor,Gelang Patah,129.0,285000.0,11,0,1,737.0153288558074,189255.7411910508,5053.379758893395,12,737.0153288558074,2
230,18785,2.490796,102.846157,Taman Genuang Perdana,Johor,Segamat,164.5,560000.0,14,0,3,321.32669114168414,68916.81008265621,3777.4471324540477,17,321.32669114168414,2
235,18821,2.2327975,103.0423028,"Taman Indah, Chaah",Johor,Chaah,146.0,225000.0,5,0,1,227.5368829654129,94188.54259290523,36963.05984399066,6,227.5368829654129,2
236,18824,2.48766,102.85152,"Taman Indah, Pagoh",Johor,Segamat,136.5,342500.0,12,0,2,555.9683065968654,69498.49071169259,4464.8699095266675,14,555.9683065968654,2
242,18880,2.2540174,103.0447987,"Taman Kemakmuran, Chaah",Johor,Chaah,90.5,140000.0,5,0,1,210.9583431996953,93849.08545193654,37716.478848295585,6,210.9583431996953,2
245,23599,0.0,0.0,Taman Khadri Sabran,Johor,Mersing,120.5,284000.0,0,0,0,11148747.730357049,11166707.407256505,11152762.883457733,0,11148747.730357049,2
248,18933,2.39932,103.01704,Taman Labis,Johor,Labis,87.0,225000.0,7,0,1,595.4123193976668,88142.63003359179,25302.09745443544,8,595.4123193976668,2
250,29149,2.0176004,102.5727136,Taman Lembah Padang 2,Johor,Muar,101.0,275000.0,16,0,2,927.6563755778855,62509.01913983897,2095.702634796142,18,927.6563755778855,1
252,23584,0.0,0.0,Taman Lundang Jaya,Johor,Batu Pahat,179.0,329300.0,0,0,0,11148747.730357049,11166707.407256505,11152762.883457733,0,11148747.730357049,2
254,18957,1.8368956,102.9294305,"Taman Maju, Batu Pahat",Johor,Batu Pahat,54.5,60000.0,20,0,5,814.1875296480778,104414.79393295382,1171.3782467555104,25,814.1875296480778,2
256,23913,2.5067836,102.8318618,Taman Mega Jaya,Johor,Segamat,94.0,117500.0,16,0,4,318.0121787857618,67430.9635894741,1846.2011647219185,20,318.0121787857618,2
257,18998,2.5282862,102.8267405,"Taman Mentari, Sungai Segamat",Johor,Segamat,127.5,182500.0,13,0,6,474.50569320182933,67075.06409365944,2854.2703899825274,19,474.50569320182933,2
258,19016,2.56553,102.71057,Taman Mina,Johor,Batu Anam,63.5,200000.0,5,0,1,772.8712440607868,54943.369370603985,13428.407864477938,6,772.8712440607868,2
260,23976,2.3031776,103.1279115,"Taman Mutiara, Bekok",Johor,Bekok,99.5,160000.0,4,0,1,802.511826563572,101745.7358691549,35785.06725818231,5,802.511826563572,2
262,23595,0.0,0.0,Taman Pagoh Indah,Johor,Muar,177.0,460000.0,0,0,0,11148747.730357049,11166707.407256505,11152762.883457733,0,11148747.730357049,2
265,12716,1.86503005,102.9570007,Taman Pasifik Selatan,Johor,Batu Pahat,186.5,265000.0,21,0,5,254.3292847613331,104736.12143398692,787.104420360688,26,254.3292847613331,2
266,28159,2.4999319,102.823081,"Taman Perling II, Pogoh",Johor,Segamat,106.5,145000.0,14,0,4,659.0631100135494,66406.62956025843,1036.9990523340439,18,659.0631100135494,2
267,19107,2.536011,102.831318,Taman Permai 2,Johor,Segamat,97.0,160000.0,8,0,3,707.6651910316998,67677.14280912731,3846.448659834246,11,707.6651910316998,2
268,19115,2.2714,102.53854,"Taman Permata, Tangkak",Johor,Tangkak,95.5,400000.0,11,0,4,190.82523002899586,40625.79858706208,962.3773662985412,15,190.82523002899586,2
269,23556,0.0,0.0,Taman Permatang Baharu,Johor,Muar,131.5,275000.0,0,0,0,11148747.730357049,11166707.407256505,11152762.883457733,0,11148747.730357049,2
271,19125,0.0,0.0,Taman Pertiwi,Johor,Bakri,131.0,375000.0,0,0,0,11148747.730357049,11166707.407256505,11152762.883457733,0,11148747.730357049,2
280,28107,1.7261547,103.4443198,"Taman Ria, Kulai",Johor,Kulai,71.0,187500.0,3,0,2,899.989185861306,158052.71234347054,22044.118753436414,5,899.989185861306,2
281,19185,2.0778557,102.5819299,"Taman Ria, Muar",Johor,Muar,160.5,699000.0,12,0,4,442.6592008993944,58092.924204333925,2363.6566386761992,16,442.6592008993944,2
282,23917,2.511051,102.8287889,"Taman Ria, Segamat",Johor,Segamat,103.5,147500.0,16,0,5,508.9855636371289,67125.40906470749,1631.3945051849178,21,508.9855636371289,2
283,19186,1.8232921,103.3025756,"Taman Ria, Simpang Renggam",Johor,Simpang Renggam,89.0,285000.0,5,0,2,580.989104731053,139004.7996073187,22841.334077942996,7,580.989104731053,2
290,19235,1.6050413,103.6381397,Taman Selesa,Johor,Senai,156.0,170000.0,7,0,1,783.8804797634715,183437.3504501959,4153.137505050062,8,783.8804797634715,2
295,12313,0.0,0.0,Taman Sentang Jaya,Johor,Parit Sulong,146.0,482500.0,0,0,0,11148747.730357049,11166707.407256505,11152762.883457733,0,11148747.730357049,2
298,19269,2.1879269,103.2009598,Taman Seri Palma,Johor,Paloh,74.5,365000.0,8,0,1,406.6224969156586,112521.28083742611,20695.24250092507,9,406.6224969156586,2
300,24043,0.0,0.0,Taman Setia,Johor,Kukup,53.5,41500.0,0,0,0,11148747.730357049,11166707.407256505,11152762.883457733,0,11148747.730357049,2
302,17228,0.0,0.0,Taman Sinaran,Johor,Chaah,167.0,266000.0,0,0,0,11148747.730357049,11166707.407256505,11152762.883457733,0,11148747.730357049,2
303,19316,2.302985,103.128685,Taman Sri Bekok,Johor,Bekok,111.5,179000.0,4,0,1,784.6379492482716,101834.16816439565,35718.33570950109,5,784.6379492482716,2
307,23895,1.642475,103.2607868,Taman Sri Mahkota,Johor,Benut,98.0,140000.0,7,0,2,231.45070992996278,146502.3036649531,21129.89197924818,9,231.45070992996278,2
310,28189,2.395029,103.0162586,Taman Sri Sejati,Johor,Labis,48.0,52500.0,7,0,1,324.825200234272,88095.55828036983,25448.72186085836,8,324.825200234272,2
315,19438,2.5594592,102.753632,"Taman Suria, Buloh Kasap",Johor,Segamat,42.5,46000.0,4,0,2,1442.9477305336643,59514.78759159537,9118.464189442684,6,1442.9477305336643,2
320,19034,1.5189733,103.63065,Taman Mutiara Mas,Johor,Skudai,386.0,730000.0,23,0,3,115.46339670507382,187847.23069429252,2223.203122450759,26,115.46339670507382,91
321,12906,1.611170053,103.6449966,Taman Senai Utama,Johor,Senai,182.0,300000.0,7,0,2,383.9487588427158,183741.86060936673,3976.754886309365,9,383.9487588427158,94
322,19526,2.5522884,102.7913546,Taman Yayasan,Johor,Segamat,107.0,224766.0,6,0,2,1470.2250255296217,63519.590111784804,5854.305356362296,8,1470.2250255296217,86
323,18327,0.0,0.0,Bandar Uda Utama,Johor,Skudai,279.0,450000.0,0,0,0,11148747.730357049,11166707.407256505,11152762.883457733,0,11148747.730357049,93
324,12091,1.5330668,103.6967307,Taman Bukit Kempas,Johor,Johor Bahru,173.5,400000.0,20,0,1,435.7363140787557,193166.36048397026,3344.4529798389576,21,435.7363140787557,92
326,19143,1.5547825,103.568892,Taman Pulai Hijauan,Johor,Kangkar Pulai,252.0,545000.0,6,0,1,1097.2219573354416,179934.38587804022,5821.393676457009,7,1097.2219573354416,90
327,8616,1.557191,103.7491143,Adda Heights,Johor,Johor Bahru,352.5,913000.0,11,0,1,674.5760660885676,196750.5740169642,3757.877825370906,12,674.5760660885676,90
329,18326,0.0,0.0,Bandar Tiram,Johor,Ulu Tiram,149.5,402500.0,0,0,0,11148747.730357049,11166707.407256505,11152762.883457733,0,11148747.730357049,88
331,19517,2.21931,103.54653,Taman Wawasan Kota,Johor,Bekok,32.0,42500.0,3,0,1,341.9415881634221,149217.33537394923,30806.952015018116,4,341.9415881634221,2
332,19516,2.27526,102.55436,"Taman Wawasan, Tangkak",Johor,Tangkak,120.0,185000.0,12,0,2,841.75419943322,41922.765523766524,884.5493080153828,14,841.75419943322,1
334,23924,1.6129113,104.2583951,Tanjung Balau,Johor,Kota Tinggi,41.5,340000.0,0,0,0,6136.941340003086,244764.48875307373,42205.002806764336,0,6136.941340003086,2
335,9084,1.4735284,103.7637897,The Astaka @ 1 Bukit Senyum,Johor,Johor Bahru,819.5,1974900.0,37,0,7,380.1573373636521,202995.4600123094,773.7082378775933,44,380.1573373636521,2
336,16573,1.4235646,103.614732,Ujana Executive Apartment,Johor,East Ledang,544.5,510000.0,7,0,2,673.1136587417766,192490.33529192448,2331.926971083965,9,673.1136587417766,2
337,24466,1.501188,103.785074,Botanika @ Tebrau Bay,Johor,Johor Bahru,550.0,657546.0,18,0,4,418.5083893473585,203376.06318887975,2187.0853519454276,22,418.5083893473585,1
338,9127,1.468999982,103.6669998,Casa Almyra,Johor,Johor Bahru,369.0,1180000.0,10,0,1,541.8221460522218,194296.54064614762,2784.0961074972593,11,541.8221460522218,1
339,24986,1.4229799,103.6674585,Emerald Bay @ Puteri harbour,Johor,Johor Bahru,631.0,3200000.0,4,0,0,928.2471001931584,197263.86330187475,3562.324396556696,4,928.2471001931584,1
340,24616,1.4290217,103.6520445,Estuari Gardens,Johor,Iskandar Puteri (Nusajaya),880.0,2111888.0,4,0,2,1189.929924264287,195481.51320472217,1851.3721771980347,6,1189.929924264287,1
341,28155,2.3816422,102.9049775,Felcra Bukit Kepong,Johor,Labis,25.0,300000.0,2,0,1,1317.9972174539896,75934.10517438689,16909.568029157752,3,1317.9972174539896,1
343,28173,1.8026515,102.9670465,Horizon Sky Villa,Johor,Batu Pahat,207.0,450000.0,3,0,0,839.834230954092,110058.53264412051,4792.60714266907,3,839.834230954092,1
344,18350,1.8501666,102.9531149,Kaki Bukit Gunung Soga,Johor,Batu Pahat,50.0,550000.0,25,0,5,404.02879056286775,105450.83515796521,1249.022896661001,30,404.02879056286775,1
350,12768,0.0,0.0,Kampung Baru Sengkang,Johor,Kulai,13.0,90000.0,0,0,0,11148747.730357049,11166707.407256505,11152762.883457733,0,11148747.730357049,1
352,18387,1.8341155,103.3153565,Kampung Chokro,Johor,Simpang Renggam,56.0,350000.0,5,0,2,913.5951684509505,139629.7973221644,21487.06855426127,7,913.5951684509505,1
353,18393,2.09961,103.39651,Kampung Gajah,Johor,Kluang,53.0,65000.0,4,0,1,745.2840175033696,136152.42574613183,9526.384101598447,5,745.2840175033696,1
354,18398,1.75526,103.3064,Kampung Ibrahim Majid,Johor,Benut,38.0,270000.0,1,0,0,1948.67151005281,143339.88758658068,29708.547400118034,1,1948.67151005281,1
356,18426,1.8503491,102.9211101,"Kampung Muhibbah, Peserai",Johor,Batu Pahat,29.0,158000.0,14,0,7,873.6234295149985,102736.2925492831,852.4659216420395,21,852.4659216420395,1
357,18427,1.568815,103.6051626,Kampung Nesa Kangkar Pulai,Johor,Skudai,227.0,580000.0,7,0,1,1184.570633311072,182449.45817058164,4126.96340576401,8,1184.570633311072,1
359,28022,2.4219335,103.8252262,Kampung Pengkalan Batu,Johor,Mersing,45.0,500000.0,9,0,2,1924.371636981016,177801.7682924506,2411.1680039005096,11,1924.371636981016,1
361,28099,1.5143792,103.7972708,Kampung Rumah 10,Johor,Masai,26.0,100000.0,16,0,4,1054.3576367361518,203778.2793747893,2167.5691482347543,20,1054.3576367361518,1
363,28023,2.4728644,103.0122427,Kampung Sawah Baharu,Johor,Labis,6.0,40000.0,1,0,0,771.7126333168007,87328.271980181,22187.839230218604,1,771.7126333168007,1
366,28024,2.4495559,103.8281849,Kampung Seri Lalang,Johor,Mersing,90.0,300000.0,8,0,3,267.0157333053439,178076.56546540195,2981.745218958879,11,267.0157333053439,1
369,28003,2.0392251,102.5767895,Kampung Sri Amar Di Raja,Johor,Muar,177.0,680000.0,31,0,7,89.62187683125497,60929.677272291825,1126.2263372024647,38,89.62187683125497,1
370,18456,1.4985484,103.6936418,"Kampung Sri Jaya, Tampoi",Johor,Tampoi,29.0,380000.0,20,0,2,429.78891456745106,194939.2764724947,3920.0714752440895,22,429.78891456745106,1
371,23925,2.5276663,102.800533,Kampung Tangga Batu,Johor,Segamat,1.0,57000.0,12,0,4,799.9057850156651,64170.29939237799,2984.1538630667465,16,799.9057850156651,1
374,24494,1.4195503,103.6319978,Medini Signature,Johor,Iskandar Puteri (Nusajaya),385.0,364500.0,9,0,2,850.1220891940046,194297.80595617733,852.5119725582222,11,850.1220891940046,1
375,15905,1.5260179,103.762275,Pandan Residence II,Johor,Johor Bahru,511.0,720000.0,14,0,3,528.1671206583779,199779.66182187083,3941.058554503619,17,528.1671206583779,1
376,8615,1.470027,103.743373,Pangsapuri Adamai,Johor,Johor Bahru,425.0,600000.0,33,0,7,578.0122613847725,201297.3414523267,699.5632604382395,40,578.0122613847725,1
377,18496,2.054841,102.585814,Pangsapuri Anda,Johor,Muar,65.0,35000.0,28,0,6,753.3975794435341,60270.50338713633,1271.7699143922907,34,753.3975794435341,1
378,18497,2.0473649,102.6453483,Pangsapuri Bakri Jaya,Johor,Bakri,117.0,110000.0,6,0,2,744.7631861143361,65423.52998834761,7942.350107941833,8,744.7631861143361,1
379,18505,3.236309,101.717921,Pangsapuri Mutiara,Johor,Muar,202.0,295000.0,28,2,1,224.76038472669964,923.7944972938674,3908.5109066148257,31,224.76038472669964,1
380,18511,1.495585,103.8844637,Pangsapuri Sri Delima,Johor,Masai,175.0,130000.0,20,0,3,81.87174815862747,213188.87735059514,2408.5180013392096,23,81.87174815862747,1
381,10829,1.4203953,103.6365223,Paradiso Nuova Medini,Johor,Iskandar Puteri (Nusajaya),607.0,588000.0,9,0,2,666.4210178784749,194647.56798845538,665.1788673654925,11,665.1788673654925,1
384,27989,2.0471306,102.5680597,Pekan Muar,Johor,Muar,135.0,380000.0,32,0,6,182.7243547246707,59637.1522427829,396.7120096010224,38,182.7243547246707,1
385,18525,2.4829468,102.8429759,Perumahan Awam Bukit Siput II,Johor,Segamat,52.0,65000.0,12,0,3,430.9515189360851,68530.62619451463,3934.4265818641734,15,430.9515189360851,1
386,18527,1.679705,103.142906,Perumahan Awam Kos Rendah Rengit,Johor,Rengit,76.0,100000.0,6,0,0,411.7012739920602,133746.72691169233,28460.003316671293,6,411.7012739920602,1
387,29138,1.5047531,103.682084,Riverria Condovilla,Johor,Johor Bahru,109.0,120000.0,22,0,4,1093.887335794057,193487.43039184526,2900.1334264961333,26,1093.887335794057,1
388,23974,1.5066867,103.6843722,Rumah Pangsa Sri Indah,Johor,Tampoi,16.0,10000.0,23,0,3,1063.9501562872729,193583.45981616885,3225.039215502438,26,1063.9501562872729,1
389,15018,1.5075512,103.8659784,"Seri Mutiara Apartments, Bandar Baru Seri Alam",Johor,Masai,334.0,450000.0,21,0,1,281.67032853418516,210745.5390049649,4732.994823336772,22,281.67032853418516,1
390,14964,1.509339,103.688841,Skudai Parade Apartment,Johor,Johor Bahru,135.0,170000.0,22,0,2,607.7258013160055,193840.15962525335,3544.4611991662964,24,607.7258013160055,1
391,15044,1.468499,103.770047,Stulang Villa,Johor,Johor Bahru,263.0,450000.0,26,0,6,503.9937077165436,203881.81512987366,1221.0526283412269,32,503.9937077165436,1
393,18557,2.4267078,102.67658,"Taman Aman, Jementah",Johor,Jementah,78.0,230000.0,7,0,1,364.21421353118245,50155.288035694386,17703.57030117002,8,364.21421353118245,1
394,28168,1.7278279,103.6406149,Taman Anjaria (Taman Sutera),Johor,Kulai,223.0,290000.0,1,0,1,1113.7790804521453,177034.4796684759,10005.158804688286,2,1113.7790804521453,1
397,18579,1.88168,103.26458,"Taman Bahagia, Simpang Renggam",Johor,Simpang Renggam,101.0,400000.0,2,0,1,122.383777324579,132121.8185475057,17675.713210085225,3,122.383777324579,1
399,28102,0.0,0.0,Taman Bayu Tebrau,Johor,Johor Bahru,222.0,220000.0,0,0,0,11148747.730357049,11166707.407256505,11152762.883457733,0,11148747.730357049,1
401,18610,2.54555,102.76906,"Taman Berjaya, Buloh Kasap",Johor,Segamat,94.0,145000.0,3,0,1,934.932441246383,60955.830809256964,6814.493422043953,4,934.932441246383,1
411,23603,0.0,0.0,Taman Cahaya Indah,Johor,Muar,160.0,750000.0,0,0,0,11148747.730357049,11166707.407256505,11152762.883457733,0,11148747.730357049,1
415,18691,2.2439686,103.0380673,Taman Chaah Utama,Johor,Chaah,77.0,60000.0,5,0,1,617.4904624832086,93406.3862606408,38050.38124138978,6,617.4904624832086,1
417,18702,2.2790184,102.5412724,"Taman Damai, Tangkak",Johor,Tangkak,88.0,400000.0,13,0,4,723.853570106694,40454.256999264886,1032.5652486272686,17,723.853570106694,1
419,23882,1.4939389,103.7884678,Taman Desa Belantik,Johor,Johor Bahru,66.0,50000.0,11,0,4,717.8266088800704,204118.04047747396,1841.1233934443153,15,717.8266088800704,1
421,18734,0.0,0.0,Taman Desa Putera,Johor,Kluang,238.0,425000.0,0,0,0,11148747.730357049,11166707.407256505,11152762.883457733,0,11148747.730357049,1
427,18758,2.2110102,103.5364727,"Taman Emas, Kahang",Johor,Bekok,71.0,148000.0,2,0,1,810.119440428672,148287.63075138038,29359.972366231155,3,810.119440428672,1
428,18760,2.4584394,103.8187143,"Taman Emas, Mersing",Johor,Mersing,116.0,90000.0,4,0,2,870.3096641213475,177016.98454353755,4416.26660059991,6,870.3096641213475,1
429,18761,2.5091955,102.8327615,"Taman Emas, Segamat",Johor,Segamat,41.0,32000.0,16,0,4,392.62412616348644,67550.20306885557,1988.2306812453496,20,392.62412616348644,1
430,13073,1.567574,103.618887,Taman Sri Pulai,Johor,Skudai,188.0,295000.0,3,0,0,217.01492040372156,183808.26324495254,3794.221450962665,3,217.01492040372156,90
431,24547,1.5231648,103.9442706,Meridin East The Greenway & The Eden,Johor,Pasir Gudang,,,3,0,2,1115.91712449081,217493.69100827866,6962.299498383091,5,1115.91712449081,0
432,18923,2.0150364,103.071007,Taman Kota Panorama,Johor,Yong Peng,64.0,54755.0,9,0,1,269.39125547462703,106157.6658356851,21619.345444125647,10,269.39125547462703,83
434,19334,1.8690166,102.9502479,Taman Sri Jaya,Johor,Batu Pahat,115.5,170000.0,19,0,6,478.21832504104117,103875.33542888433,861.761913990532,25,478.21832504104117,82
436,12604,1.492599964,103.7639999,Taman Melodies,Johor,Johor Bahru,214.0,650000.0,37,0,9,463.5063445271274,201885.29568410557,1338.9862797581366,46,463.5063445271274,79
437,18333,1.4816778,103.5888261,Denia Residence @ Nusantara Prima,Johor,Gelang Patah,349.0,576389.0,8,0,1,1345.7925296771152,186370.30732517783,5409.752054158542,9,1345.7925296771152,77
438,18745,0.0,0.0,Taman Desaru Utama,Johor,Kota Tinggi,220.0,362500.0,0,0,0,11148747.730357049,11166707.407256505,11152762.883457733,0,11148747.730357049,80
439,28192,1.5290654,103.582184,"Taman Scientex, Pulai",Johor,Kangkar Pulai,351.0,438800.0,2,0,0,2661.8619415706644,182756.23238709167,3866.1459931464237,2,2661.8619415706644,66
442,18770,0.0,0.0,"Taman Fajar, Pagoh",Johor,Pagoh,115.0,177000.0,0,0,0,11148747.730357049,11166707.407256505,11152762.883457733,0,11148747.730357049,1
451,29163,2.4967586,102.8381731,Taman Hijau,Johor,Segamat,119.0,450000.0,15,0,5,569.8546059773043,68062.1988750946,2703.9609751050093,20,569.8546059773043,1
453,18822,2.0521531,103.354022,"Taman Indah, Kluang",Johor,Kluang,82.0,60000.0,7,0,3,621.0575313035743,133343.49849833272,2572.2263199349145,10,621.0575313035743,1
460,18852,2.42865,102.67824,"Taman Jaya, Jementah",Johor,Jementah,143.0,220000.0,7,0,1,646.998188534191,50322.446604346915,17437.657043537896,8,646.998188534191,1
461,23524,2.037308,102.554909,Taman Junid Kejora,Johor,Muar,154.0,214000.0,25,0,2,74.73159383807666,59572.93296189404,1386.51311490509,27,74.73159383807666,1
464,10312,1.5090248,103.7021132,Taman Kenanga,Johor,Johor Bahru,188.0,290000.0,21,0,4,164.84919523144217,195099.37093144614,2874.458766123432,25,164.84919523144217,1
466,18911,1.93083,102.95705,Taman Koperasi Jaya,Johor,Batu Pahat,73.0,125000.0,4,0,1,1336.090115532252,100301.95000105549,7722.129732775787,5,1336.090115532252,1
470,18959,1.6840232,103.1562374,"Taman Maju Jaya Baharu, Rengit",Johor,Rengit,148.0,240000.0,5,0,0,732.3984112109778,134573.5131993864,29374.4104557028,5,732.3984112109778,1
472,18995,2.4269851,102.6770875,"Taman Melodi, Jementah",Johor,Jementah,166.0,255000.0,7,0,1,426.1668529304203,50209.077678044494,17639.341843500726,8,426.1668529304203,1
474,19014,2.49845,102.81783,Taman Mida 2,Johor,Segamat,152.0,250000.0,15,0,4,1150.7971872419737,65813.89813841233,791.9610483859261,19,791.9610483859261,1
476,19022,1.8362492,103.32031,"Taman Muhibbah, Simpang Renggam",Johor,Simpang Renggam,39.0,30000.0,5,0,1,1474.423729913846,139990.72978222696,21210.42778300721,6,1474.423729913846,1
479,28103,1.588333,103.8222292,"Taman Murni, Ulu Tiram",Johor,Ulu Tiram,64.0,70000.0,8,0,1,1167.9320118847484,202120.71345089094,5670.7124360768785,9,1167.9320118847484,1
480,28013,2.0818272,102.6392094,Taman Naib Kadir Bistari,Johor,Bukit Pasir,162.0,406800.0,6,0,2,1753.612959792539,62298.286122623176,7681.314503399316,8,1753.612959792539,1
484,23590,0.0,0.0,Taman Parit Bakar Gemilang,Johor,Muar,153.0,250000.0,0,0,0,11148747.730357049,11166707.407256505,11152762.883457733,0,11148747.730357049,1
487,19097,2.2707755,102.5337086,Taman Pelangi Fasa I,Johor,Tangkak,207.0,345000.0,11,0,4,253.1819027683257,40205.11043903037,1503.0999473061277,15,253.1819027683257,1
488,23606,1.9585757,102.6397437,"Taman Pelangi, Parit Jawa",Johor,Muar,107.0,300000.0,8,0,5,387.1951301105008,72265.68009341953,11739.487686459177,13,387.1951301105008,1
490,19128,2.4017307,103.0144553,"Taman Perwira, Labis",Johor,Labis,62.0,48000.0,7,0,1,965.8878370780882,87834.93619436282,24924.129434217873,8,965.8878370780882,1
491,19132,1.84829,102.90133,"Taman Peserai, Batu Pahat",Johor,Batu Pahat,62.0,158000.0,4,0,3,506.10755272318795,101246.06523359817,2574.1309027673046,7,506.10755272318795,1
494,19182,2.43152,102.67848,"Taman Ria, Jementah",Johor,Jementah,74.0,54000.0,7,0,1,599.4455000703265,50325.82246323102,17262.359895407182,8,599.4455000703265,1
495,28108,1.508285,103.5185882,"Taman Ria, Pekan Nenas",Johor,Pekan Nanas (Pekan Nenas),150.0,105000.0,6,0,1,513.4388974360163,178317.01336561792,11260.182786505045,7,513.4388974360163,1
502,19239,1.9174457,102.9524404,Taman Semarak,Johor,Batu Pahat,154.0,414000.0,4,0,2,503.89388382222324,100767.10843388179,6214.827488111666,6,503.89388382222324,1
505,13062,0.0,0.0,Taman Seri Medoi,Johor,Segamat,94.0,150000.0,0,0,0,11148747.730357049,11166707.407256505,11152762.883457733,0,11148747.730357049,1
507,23601,0.0,0.0,Taman Seri Tanjung,Johor,Mersing,234.0,420000.0,0,0,0,11148747.730357049,11166707.407256505,11152762.883457733,0,11148747.730357049,1
510,19287,0.0,0.0,Taman Siantan Damai,Johor,Simpang Renggam,115.0,390000.0,0,0,0,11148747.730357049,11166707.407256505,11152762.883457733,0,11148747.730357049,1
514,23578,0.0,0.0,Taman Sinar,Johor,Kluang,76.0,355000.0,0,0,0,11148747.730357049,11166707.407256505,11152762.883457733,0,11148747.730357049,1
516,19310,2.5095,102.83277,"Taman Sri Bahagia, Segamat",Johor,Segamat,61.0,180000.0,16,0,5,420.91309276988363,67553.67351573402,1996.9746481041268,21,420.91309276988363,1
517,19323,2.2431563,103.0366339,Taman Sri Chaah,Johor,Chaah,55.0,60000.0,5,0,1,700.2973815388829,93275.86425209795,38015.19026065412,6,700.2973815388829,1
519,23594,0.0,0.0,Taman Sri Fajar,Johor,Batu Pahat,162.0,250000.0,0,0,0,11148747.730357049,11166707.407256505,11152762.883457733,0,11148747.730357049,1
520,13029,0.0,0.0,Taman Sri Ganang,Johor,Jementah,74.0,63000.0,0,0,0,11148747.730357049,11166707.407256505,11152762.883457733,0,11148747.730357049,1
523,19336,2.5391064,102.8062115,"Taman Sri Jaya, Jabi",Johor,Segamat,155.0,238000.0,11,0,3,476.9473490864765,64948.72534123679,3888.5326050405665,14,476.9473490864765,1
524,19337,2.3958609,103.0235091,"Taman Sri Jaya, Labis",Johor,Labis,71.0,200000.0,7,0,1,518.070849973038,88891.22035738801,26116.934660500396,8,518.070849973038,1
531,12737,0.0,0.0,Taman Sri Saleng,Johor,Senai,47.0,52000.0,0,0,0,11148747.730357049,11166707.407256505,11152762.883457733,0,11148747.730357049,1
534,19423,0.0,0.0,Taman Sungai Balang Indah,Johor,Muar,120.0,185000.0,0,0,0,11148747.730357049,11166707.407256505,11152762.883457733,0,11148747.730357049,1
535,19432,2.4407067,102.6867997,"Taman Suraya, Jementah",Johor,Jementah,53.0,108000.0,7,0,1,317.837328259101,51189.01171514976,15973.861969433045,8,317.837328259101,1
536,22833,1.5024216,103.7524318,"Taman Suria, Johor Bharu",Johor,Johor Bahru,125.0,750000.0,33,0,7,583.4012270695179,200217.62347064563,1736.17949050153,40,583.4012270695179,1
537,19440,2.37219,103.03096,"Taman Suria, Labis",Johor,Labis,88.0,180000.0,7,0,2,1286.029310455384,89973.29668073064,28129.726672505865,9,1286.029310455384,1
540,14682,1.5049377,103.7083957,Pangsapuri Persiaran Tanjung,Johor,Johor Bahru,282.0,270000.0,23,0,3,675.9029868409687,195931.8456506581,2594.13339447481,26,675.9029868409687,77
541,18885,0.0,0.0,Taman Kempas Indah,Johor,Johor Bahru,279.5,414000.0,0,0,0,11148747.730357049,11166707.407256505,11152762.883457733,0,11148747.730357049,78
542,12688,1.482349992,103.6699982,Taman Nusa Duta,Johor,Johor Bahru,399.0,824000.0,12,0,1,660.2371245306406,193740.83576744623,1694.143372849008,13,660.2371245306406,78
543,19459,2.2703664,102.5498108,Taman Tangkak Jaya,Johor,Tangkak,109.0,220000.0,13,0,3,771.796132901979,41758.15411105682,333.5135826306018,16,333.5135826306018,73
544,18563,0.0,0.0,Taman Anggerik,Johor,Johor Bahru,198.0,300000.0,0,0,0,11148747.730357049,11166707.407256505,11152762.883457733,0,11148747.730357049,76
545,29168,0.0,0.0,Taman Desa Tropika,Johor,Batu Pahat,64.0,50000.0,0,0,0,11148747.730357049,11166707.407256505,11152762.883457733,0,11148747.730357049,70
546,11981,1.5472404,103.7824556,Taman Austin Perdana,Johor,Johor Bahru,375.0,535000.0,23,0,4,873.2324574138935,200505.739659008,941.7819573822169,27,873.2324574138935,75
547,19386,0.0,0.0,Taman Sri Putri,Johor,Skudai,260.0,430000.0,0,0,0,11148747.730357049,11166707.407256505,11152762.883457733,0,11148747.730357049,75
548,13099,1.487709999,103.7710037,Taman Sri Tebrau,Johor,Johor Bahru,266.0,480000.0,31,0,7,133.54622300165786,202832.9100723645,599.9486389434321,38,133.54622300165786,75
549,16300,1.492555581,103.6314583,Sri Awana Townhouse,Johor,Skudai,257.0,260000.0,12,0,2,438.6846980231759,189561.7025912901,1655.2839867816724,14,438.6846980231759,69
554,23532,2.279724,102.520446,Taman Vila,Johor,Tangkak,143.0,420000.0,10,0,3,299.71098022017947,38429.75279977611,3099.7679752508316,13,299.71098022017947,1
558,19520,2.5861886,102.6260557,"Taman Wira, Gemas",Johor,Gemas,104.0,160000.0,9,0,1,385.61648031600777,46402.254173551075,22877.878037824074,10,385.61648031600777,1
562,15858,1.488013,103.815736,The Marina View,Johor,Permas Jaya/Senibong,695.0,800000.0,13,0,1,552.6809343421806,207046.64729196887,4544.46570496721,14,552.6809343421806,1
564,14235,1.502842,103.709114,Dwi Mahkota,Johor,Johor Bahru,283.0,270000.0,23,0,3,595.4632786503743,196124.53860767215,2713.7661018821595,26,595.4632786503743,69
565,11949,1.5889757,103.6457344,Taman Aman,Johor,Senai,149.0,190000.0,6,0,1,894.6800687796152,185083.27225714095,6120.23805675491,7,894.6800687796152,69
566,12276,1.54034996,103.6399994,Taman Desa Skudai,Johor,Skudai,208.0,350000.0,19,0,3,508.23636106982485,187414.31372521663,2709.89955215144,22,508.23636106982485,69
567,19455,1.4954013,103.6597066,Taman Tan Sri Yacob,Johor,Skudai,345.0,278000.0,19,0,1,1177.1809209816258,191984.47509162463,300.4438623883206,20,300.4438623883206,69
568,14422,1.4925938,103.7498305,Larkin Residence,Johor,Johor Bahru,350.0,400000.0,43,0,9,210.95911257324804,200552.31729499495,891.298283570225,52,210.95911257324804,66
569,28051,1.8701931,102.9355323,Taman Desa Botani,Johor,Batu Pahat,388.0,668000.0,22,0,7,934.2848699025069,102529.56471920593,1984.2833980327482,29,934.2848699025069,65
570,12240,1.5179012,103.7971947,Taman Desa Harmoni,Johor,Masai,238.0,350000.0,17,0,4,1289.430899685764,203570.6034650252,1778.0463377335238,21,1289.430899685764,67
571,28053,2.0701663,102.5766787,Taman Putera Indah,Johor,Muar,199.0,370000.0,22,0,5,574.8555798103183,58328.7007238585,1371.9230375251473,27,574.8555798103183,50
572,13118,2.061640024,102.5859985,Taman Sungai Abong,Johor,Muar,170.0,415000.0,27,0,5,1046.3810833785685,59722.78130650316,1354.8881309971548,32,1046.3810833785685,57
573,24088,2.0686614,102.5913127,Taman Desa,Johor,Muar,104.0,112500.0,16,0,5,654.8226048334028,59548.1259904645,2244.773319852097,21,654.8226048334028,42
574,12689,1.476729989,103.637001,Taman Nusa Indah,Johor,Iskandar Puteri (Nusajaya),352.0,580000.0,7,0,1,758.7234319462062,191064.57468636602,233.6265653595616,8,233.6265653595616,63
575,28114,1.7296022,103.6986066,PPAM Bandar Akademi YPJ,Johor,Gugusan Taib Andak,192.0,268125.0,0,0,0,3913.486521763082,182701.41964147033,13096.562338347936,0,3913.486521763082,63
576,18571,0.0,0.0,Taman Austin Heights,Johor,Johor Bahru,375.0,980000.0,0,0,0,11148747.730357049,11166707.407256505,11152762.883457733,0,11148747.730357049,63
577,19153,1.5036533,103.7603736,"Taman Putera/Suria, Johor Bahru",Johor,Johor Bahru,247.0,500000.0,25,0,9,281.4125870528112,200895.00195254537,2492.0029286131216,34,281.4125870528112,63
578,18303,0.0,0.0,Bandar Baru Bukit Gambir,Johor,Bukit Gambir,124.0,350000.0,0,0,0,11148747.730357049,11166707.407256505,11152762.883457733,0,11148747.730357049,55
579,8931,1.50019002,103.788002,Bayu Puteri 3,Johor,Johor Bahru,332.0,330000.0,15,0,4,582.6504969344311,203711.46484860106,2282.7431095186885,19,582.6504969344311,61
580,19473,2.0768699,102.586509,Taman Temiang Jaya,Johor,Muar,181.0,360000.0,11,0,5,861.4802154060887,58519.74137648587,2510.0615437384595,16,861.4802154060887,55
581,14421,1.4937215,103.7532363,Larkin Idaman,Johor,Johor Bahru,372.0,345000.0,43,0,9,396.52313336837534,200805.83076424294,1289.3717759976275,52,396.52313336837534,60
583,18886,0.0,0.0,Taman Kempas Utama,Johor,Johor Bahru,435.0,750000.0,0,0,0,11148747.730357049,11166707.407256505,11152762.883457733,0,11148747.730357049,59
584,27998,2.0521939,102.6456178,Jalan Bakri,Johor,Bakri,233.0,588000.0,6,0,2,1053.392631816375,65070.6104722003,7916.609727173549,8,1053.392631816375,55
586,12655,1.588780046,103.8160019,Taman Mutiara,Johor,Ulu Tiram,129.0,290000.0,9,0,1,840.5058147709992,201488.9879745054,5188.751154398259,10,840.5058147709992,17
587,15747,1.509916,103.685959,Kipark Apartment,Johor,Tampoi,389.0,340000.0,22,0,3,931.1589703273594,193536.46391422258,3274.838208899796,25,931.1589703273594,58
588,10706,1.439700007,103.5970001,Nusa Heights (Nusa Puncak),Johor,Gelang Patah,411.0,388000.0,10,0,1,1267.040279091056,189842.10565477342,4500.408031633837,11,1267.040279091056,59
589,16396,1.5162139,103.6996609,Taman Cempaka,Johor,Johor Bahru,121.0,71500.0,20,0,4,298.24956880599876,194440.36160233,2844.6574805512128,24,298.24956880599876,50
590,12210,1.5822776,103.8117601,Taman Dato Chellam,Johor,Ulu Tiram,260.0,450000.0,14,0,1,332.46563946605056,201422.19651551815,4351.203900451182,15,332.46563946605056,59
591,19156,1.8774958,102.9518752,Taman Puteri Jaya,Johor,Batu Pahat,274.5,538000.0,12,0,4,514.8375140502978,103425.59076094505,1797.919870356513,16,514.8375140502978,55
592,19514,1.6850905,103.5281862,"Taman Wawasan, Kulai",Johor,Kulai,141.0,150000.0,6,0,2,716.0724089013771,168391.73065307224,11666.212856899763,8,716.0724089013771,59
594,19403,2.0360442,102.5824961,Taman Sri Temenggong,Johor,Muar,157.5,304000.0,28,0,8,575.8256627821296,61606.23688959068,1693.6636998167046,36,575.8256627821296,54
595,13459,1.4899036,103.8140583,"The Straits View, Bandar Baru Permas Jaya",Johor,Permas Jaya/Senibong,294.0,485000.0,13,0,1,597.4998148736256,206778.3643326436,4384.010150603728,14,597.4998148736256,57
596,16599,1.492207,103.6534417,Villa Bestari,Johor,Skudai,310.0,360000.0,16,0,2,1355.4061452562682,191604.09611377527,608.7969728525901,18,608.7969728525901,56
598,16069,1.512011,103.6830854,Park Avenue,Johor,Tampoi,229.0,160000.0,23,0,3,551.2718469731988,193142.09862006872,2888.776123667664,26,551.2718469731988,55
599,18815,0.0,0.0,Taman Impian Jaya,Johor,Senai,134.0,255000.0,0,0,0,11148747.730357049,11166707.407256505,11152762.883457733,0,11148747.730357049,30
600,13055,1.722406,103.892617,Taman Sri Lalang,Johor,Kota Tinggi,90.0,130000.0,14,0,2,389.74800904966423,202587.2428882749,1693.422834615109,16,389.74800904966423,53
601,15358,1.4964844,103.8553677,Apartment Ria,Johor,Masai,202.0,180000.0,15,0,0,396.88978916291404,210344.88663988266,4986.7646906439895,15,396.88978916291404,55
602,10937,1.510750055,103.8249969,"Permas Ville, Bandar Baru Permas Jaya ",Johor,Permas Jaya/Senibong,307.0,330000.0,16,0,2,234.17569495322877,206633.00696553354,4037.866462908414,18,234.17569495322877,55
604,28043,2.0133832,103.3003648,Taman Intan,Johor,Kluang,101.0,160000.0,21,0,2,454.8218248111452,129338.21463509582,3032.787851893237,23,454.8218248111452,41
605,28010,2.0643741,102.5462189,Taman Kesang Idaman,Johor,Muar,116.0,310000.0,11,0,0,396.01281634062707,56624.42353982937,3111.727455522476,11,396.01281634062707,55
606,12517,1.656900048,103.564003,Taman Lagenda Putra,Johor,Kulai,237.0,390000.0,6,0,0,1019.2345986100355,173411.86633409766,6806.551409578569,6,1019.2345986100355,55
608,16522,1.4994476,103.6877768,Taman Tampoi Utama,Johor,Tampoi,139.0,116000.0,19,0,2,716.8451402399738,194338.91022960513,3298.3691460167115,21,716.8451402399738,54
609,18305,1.4998837,103.8669776,Bandar Baru Kota Puteri,Johor,Masai,220.0,192000.0,21,0,1,872.1347230492967,211268.31615156855,4083.0433585466144,22,872.1347230492967,52
610,24024,1.5659873,103.7314796,Pangsapuri Kasturi MyHome,Johor,Johor Bahru,115.0,99000.0,9,0,1,943.7684848505687,194566.5471230506,4946.7678659180765,10,943.7684848505687,52
611,18830,1.929726,102.8525474,Taman Industri Sri Sulong,Johor,Parit Sulong,85.0,180000.0,2,0,2,1060.9460670315716,91226.06136076424,11106.337653484328,4,1060.9460670315716,51
614,23906,2.4966866,102.8634842,Bandar Putra IOI,Johor,Segamat,208.0,330000.0,12,0,1,382.35731970312384,70872.79708059307,5435.678730901054,13,382.35731970312384,1069
615,18647,1.4807002,3.6579241,Taman Bukit Indah,Johor,Johor Bahru,375.0,570000.0,0,0,0,10727635.988698091,10743957.812577015,10731792.305570018,0,10727635.988698091,1047
616,12862,1.502589941,103.9169998,Taman Scientex,Johor,Pasir Gudang,290.0,300000.0,12,0,0,886.6596533207568,215944.7563427765,3329.8345010093635,12,886.6596533207568,741
617,19263,0.0,0.0,Taman Seri Impian,Johor,Kluang,206.0,365000.0,0,0,0,11148747.730357049,11166707.407256505,11152762.883457733,0,11148747.730357049,936
618,10034,1.493009,103.939636,Taman Kota Masai,Johor,Pasir Gudang,211.0,210000.0,10,0,0,1440.6424600988992,218659.1081989458,4520.1621463451675,10,1440.6424600988992,996
619,13216,1.532019973,103.6220016,Taman Universiti,Johor,Skudai,211.0,280000.0,12,0,2,595.2047794358118,186246.2000142736,611.1710652793461,14,595.2047794358118,658
620,12662,1.523740053,103.6389999,Taman Mutiara Rini,Johor,Skudai,322.0,550000.0,22,0,3,232.7240813563012,188328.64896021958,2702.159819468251,25,232.7240813563012,630
621,18307,1.5063827,103.8744289,Bandar Baru Seri Alam,Johor,Masai,258.0,370000.0,20,0,1,657.6691349029282,211624.0597413107,4023.648242609988,21,657.6691349029282,640
622,18903,0.0,0.0,Taman Kluang Indah,Johor,Pontian,178.0,424500.0,0,0,0,11148747.730357049,11166707.407256505,11152762.883457733,0,11148747.730357049,551
623,12410,1.535629988,103.8010025,Taman Johor Jaya,Johor,Johor Bahru,240.0,339000.0,21,0,4,385.20348665195394,202935.5079059088,481.31696813605464,25,385.20348665195394,562
624,18717,0.0,0.0,"Taman Delima, Johor Bahru",Johor,Johor Bahru,159.5,330000.0,0,0,0,11148747.730357049,11166707.407256505,11152762.883457733,0,11148747.730357049,52
625,12771,1.511260033,103.7799988,Taman Ponderosa,Johor,Johor Bahru,382.0,795000.0,16,0,4,1267.357146180408,202312.89110144918,3046.4440338267723,20,1267.357146180408,50
626,28094,1.6576753,103.5587565,Taman Scientex 2,Johor,Kulai,319.0,463800.0,6,0,0,1587.8421833121329,172867.3282696384,7390.816653424956,6,1587.8421833121329,41
628,19452,1.5138977,103.6825942,"Taman Tampoi Indah II, Villa Ros",Johor,Tampoi,290.0,310000.0,25,0,3,359.0588095230932,192982.62655979427,2697.44706285167,28,359.0588095230932,53
629,11997,1.8340402,102.9303678,Taman Banang Heights,Johor,Batu Pahat,161.5,300000.0,17,0,5,1030.837631637612,104702.46040025819,1095.3762058390464,22,1030.837631637612,50
630,19155,1.8756423,102.9536646,Taman Puteri Indah,Johor,Batu Pahat,260.0,430000.0,15,0,4,699.6720331423026,103709.17439395642,1617.726553095401,19,699.6720331423026,51
631,8989,1.487020016,103.7529984,Bistari Impian,Johor,Johor Bahru,316.0,350000.0,51,0,10,324.88835384022263,201180.38845826423,1285.420388525451,61,324.88835384022263,51
632,23945,1.5598591,103.7879028,Glenmarie Height,Johor,Johor Bahru,366.0,709888.0,21,0,3,215.35576072426016,200328.94121916252,720.6408045220087,24,215.35576072426016,29
636,10592,1.527240038,103.7850037,Molek Pine,Johor,Johor Bahru,399.0,550000.0,11,0,4,515.5838888400068,201876.23559556002,1528.89439029592,15,515.5838888400068,50
637,11910,1.4879418,103.7523911,SuriaMas Suites,Johor,Johor Bahru,398.5,367500.0,51,0,11,222.29767645217,201068.65085922292,1191.3794156765832,62,222.29767645217,50
638,12321,1.523740053,103.7450027,Taman Gembira,Johor,Johor Bahru,139.0,190000.0,17,0,4,1416.6373499589383,198271.39135886743,2278.8091080433105,21,1416.6373499589383,47
639,12651,1.516240001,103.6920013,Taman Munshi Ibrahim,Johor,Johor Bahru,214.0,290000.0,26,0,2,617.4746655176373,193721.37270455025,3359.5780029007888,28,617.4746655176373,50
640,9409,0.0,0.0,East Ledang,Johor,Iskandar Puteri (Nusajaya),395.0,1250000.0,0,0,0,11148747.730357049,11166707.407256505,11152762.883457733,0,11148747.730357049,49
641,14999,1.500707,103.747984,"Sri Impian Apartment, Larkin Perdana",Johor,Johor Bahru,258.0,250000.0,35,0,8,311.569070127271,199899.35856026615,1288.299776068303,43,311.569070127271,49
642,12453,1.537469983,103.7099991,Taman Kempas,Johor,Johor Bahru,194.0,230000.0,12,0,2,183.1759804636814,194160.0192348996,2377.6717833300127,14,183.1759804636814,49
643,19006,2.06344,103.12042,Taman Mewah,Johor,Chaah,95.0,99000.0,2,0,1,489.3198878136977,108762.48318489049,21535.389331004237,3,489.3198878136977,4
645,15554,1.536507,103.634772,Desa Skudai Apartment,Johor,Skudai,222.5,263500.0,18,0,3,358.1562171444863,187159.31698849995,2045.0889398480206,21,358.1562171444863,46
646,18344,1.507568,103.8883838,"Flat Tasek 64, Bandar Baru Seri Alam",Johor,Masai,99.0,65000.0,19,0,1,189.5001826379095,212904.82373413717,3476.3578913496094,20,189.5001826379095,47
649,12781,1.575266,103.596724,Taman Pulai Emas,Johor,Kangkar Pulai,239.0,300000.0,7,0,1,1836.2136932558851,181273.67064575528,5140.422917058358,8,1836.2136932558851,48
650,28049,1.9854982,103.2525825,Taman Sri Ehsan,Johor,Kluang,132.0,438728.0,2,0,1,487.4370654052855,125714.42947120337,8827.885606330165,3,487.4370654052855,46
651,9308,1.4851927,103.7624574,D'Esplanade Residence,Johor,Johor Bahru,631.0,510000.0,43,0,11,434.931282817056,202177.25869887098,526.7093576065845,54,434.931282817056,47
652,15805,1.493370056,103.7549973,M'Tiara,Johor,Johor Bahru,370.0,370000.0,42,0,9,525.2870709155198,200992.25823433074,1471.2762007485085,51,525.2870709155198,46
653,23921,2.0097264,102.5964501,Taman Desa Bijaya,Johor,Muar,114.0,362500.0,9,0,4,353.84516081243777,64837.93837048479,4337.36979419691,13,353.84516081243777,46
654,11566,1.504609942,103.6399994,Skudai Villa,Johor,Skudai,289.0,320000.0,20,0,3,164.0994384411775,189596.7086598692,2472.8547499016036,23,164.0994384411775,46
655,12249,1.671489954,103.6019974,Taman Desa Kulai,Johor,Kulai,143.0,250000.0,8,0,1,1082.3166707964588,176242.71075640246,4243.719955054728,9,1082.3166707964588,46
657,12497,2.014760017,103.0739975,Taman Kota,Johor,Yong Peng,128.0,210000.0,9,0,1,194.2975310075978,106466.17374560163,21802.58822290974,10,194.2975310075978,42
658,23949,1.6142634,103.8125683,Bandar Cemerlang,Johor,Ulu Tiram,281.0,700000.0,7,0,1,758.6589841167981,199813.42117454414,7263.410529030327,8,758.6589841167981,43
659,24075,1.5326338,103.5691932,Laman Indah 2,Johor,Johor Bahru,139.0,150000.0,3,0,1,2476.789871621762,181341.55189590587,5283.4132435617485,4,2476.789871621762,42
660,23891,1.5789693,103.7580576,Setia Eco Cascadia,Johor,Johor Bahru,409.5,736400.0,5,0,0,1549.9250019555172,196396.47555885054,3767.1324961828036,5,1549.9250019555172,44
663,13863,1.550938,103.79535,Tebrau City Residences,Johor,Johor Bahru,269.0,357000.0,26,0,4,620.7353635568527,201539.8711552691,659.3335194414433,30,620.7353635568527,45
664,9898,1.488870025,103.8079987,Impian Senibong,Johor,Permas Jaya/Senibong,359.0,330000.0,11,0,2,720.5498659012651,206262.78187908512,3700.2728873058427,13,720.5498659012651,44
666,12691,1.456480026,103.5910034,Taman Nusa Perintis 1,Johor,Gelang Patah,176.0,450000.0,7,0,1,191.27955546624543,188202.8368860748,5718.830812765884,8,191.27955546624543,43
667,18310,0.0,0.0,Bandar Bistari Perdana,Johor,Pasir Gudang,310.0,448000.0,0,0,0,11148747.730357049,11166707.407256505,11152762.883457733,0,11148747.730357049,43
668,8930,1.4986181,103.7883873,Bayu Puteri 2,Johor,Johor Bahru,299.0,268000.0,17,0,4,571.0103092369516,203838.97986284285,2179.454574947915,21,571.0103092369516,43
669,23923,1.99176,102.6167503,Kawasan Jalan Temenggong Ahmad,Johor,Muar,125.0,305000.0,10,0,6,1085.326140219898,67807.61413499933,7345.23167948181,16,1085.326140219898,43
670,11042,1.487179995,103.7929993,Polo Park,Johor,Johor Bahru,247.0,275000.0,11,0,3,1597.440409018113,204940.1585045519,2022.0424552799843,14,1597.440409018113,43
671,18952,2.0481262,102.5673269,Taman Maharani Ayu,Johor,Muar,278.0,564000.0,32,0,6,317.2481931641853,59500.348165345524,452.03944015584375,38,317.2481931641853,40
672,23905,1.5254972,103.6245895,Taman Mutiara Utama,Johor,Skudai,390.0,538000.0,16,0,3,379.27814677164776,186885.65483596368,1236.1591904861414,19,379.27814677164776,42
673,12690,1.4944065,103.6461181,Taman Nusa Jaya Mas,Johor,Skudai,279.0,460000.0,12,0,2,975.1941559749773,190793.09955420528,1430.9200705802275,14,975.1941559749773,43
674,13539,1.4813007,103.7185651,Tropez Residences @ Danga Bay,Johor,Johor Bahru,627.0,480000.0,23,0,4,1385.2530077175375,198304.3691207452,2591.245716478254,27,1385.2530077175375,43
675,15369,1.4460706,103.9359939,Apartment Tanjung Puteri Resort,Johor,Pasir Gudang,107.0,120000.0,4,0,1,990.0105810012919,220905.42588121275,4327.636939460607,5,990.0105810012919,39
676,12322,1.651669979,103.5889969,Taman Gemilang,Johor,Kulai,221.5,385000.0,12,0,1,1085.8263948141544,176096.63229565366,3984.2673832666364,13,1085.8263948141544,42
677,19483,2.27178,102.5570485,Taman Tiara,Johor,Tangkak,187.5,340000.0,11,0,2,1305.290994158548,42373.74781405119,1097.4838938303308,13,1097.4838938303308,40
678,11187,1.500460029,103.8560028,"Apartment Putri Ria, Bandar Baru Kota Putri",Johor,Masai,240.0,230000.0,15,0,0,397.7158789664549,210182.53709726798,5130.4793234320705,15,397.7158789664549,41
679,8824,2.036361,103.318641,Haji Manan Flat,Johor,Kluang,103.5,79000.0,22,0,6,211.75458020256883,130274.00015770241,724.2948937246458,28,211.75458020256883,40
680,11117,1.501809955,103.6959991,Pulai View,Johor,Johor Bahru,324.0,390000.0,20,0,2,378.9718610426227,194961.7907413094,3875.7173147682797,22,378.9718610426227,41
682,18596,0.0,0.0,Taman Banang Ria,Johor,Batu Pahat,330.0,348000.0,0,0,0,11148747.730357049,11166707.407256505,11152762.883457733,0,11148747.730357049,39
684,19142,0.0,0.0,Taman Pulai Flora,Johor,Skudai,292.0,500000.0,0,0,0,11148747.730357049,11166707.407256505,11152762.883457733,0,11148747.730357049,41
686,28154,2.1343156,102.7329887,Bandar Universiti Pagoh,Johor,Pagoh,279.0,362888.0,1,0,0,2227.8645163169012,67008.34832623547,19569.82773823699,1,2227.8645163169012,34
688,12409,1.513960004,103.6940002,Taman Johor,Johor,Johor Bahru,184.5,355000.0,24,0,2,640.8202574459666,194044.857136766,3515.2406987675186,26,640.8202574459666,40
689,12519,1.4643207,103.6990303,Taman Laguna,Johor,Johor Bahru,322.5,842500.0,5,0,1,893.557190725252,197533.9410812659,4871.123498347537,6,893.557190725252,40
690,12674,1.529109955,103.6579971,Taman Nesa,Johor,Skudai,192.0,290000.0,24,0,3,891.5186487261551,189770.89020455533,934.8061599067371,27,891.5186487261551,39
692,11348,1.486359954,103.75,Seasons Luxury Apartments @ Amara Larkin,Johor,Johor Bahru,402.0,400000.0,52,0,9,240.7164171169997,200938.24236410725,1007.447338138975,61,240.7164171169997,39
693,12389,1.489850044,103.7900009,Taman Iskandar,Johor,Johor Bahru,389.0,650000.0,10,0,4,1155.360019156207,204501.00212409702,1775.8545267158102,14,1155.360019156207,39
694,23961,1.513771,103.8240372,"D'Ambience Residences (Ikatan Flora), Bandar Baru Permas Jaya",Johor,Permas Jaya/Senibong,439.5,382500.0,17,0,2,284.3865810535138,206370.8746329288,3747.7758589478417,19,284.3865810535138,38
696,12483,2.012870073,103.2910004,Taman Kluang Barat,Johor,Kluang,96.0,97500.0,14,0,0,174.611906131744,128399.37010632991,3656.7820627450033,14,174.611906131744,38
698,12905,1.609281,103.667237,Taman Senai Jaya,Johor,Senai,166.0,250000.0,3,0,1,2598.480691438251,185976.3256850837,5968.335921500024,4,2598.480691438251,37
700,18489,0.0,0.0,Leisure Farm,Johor,Gelang Patah,415.0,900000.0,0,0,0,11148747.730357049,11166707.407256505,11152762.883457733,0,11148747.730357049,37
703,13019,1.510660052,103.7269974,Taman Sri Bahagia,Johor,Johor Bahru,163.0,280000.0,22,0,6,537.7917454558825,197336.9188959625,1258.5489820650034,28,537.7917454558825,36
704,8929,1.497779965,103.788002,Bayu Puteri 1,Johor,Johor Bahru,333.0,360000.0,15,0,4,521.7131049374467,203851.01293300802,2082.5648331356156,19,521.7131049374467,35
705,9313,1.485669971,103.6650009,D'Inspire Residence,Johor,Skudai,554.0,520650.0,13,0,1,804.4006871102733,193074.52378643665,1043.2210918583921,14,804.4006871102733,35
706,9876,1.488735,103.807958,Idaman Senibong,Johor,Permas Jaya/Senibong,310.0,260000.0,11,0,2,735.7808637165316,206266.72674115546,3693.713549772293,13,735.7808637165316,35
707,9424,1.502910018,103.7340012,Kondominium Datin Halimah,Johor,Johor Bahru,276.0,350000.0,25,0,5,195.75535410401224,198453.8042524054,1619.196809902853,30,195.75535410401224,35
708,11435,1.486850023,103.8320007,Senibong Cove,Johor,Masai,466.0,1100000.0,17,0,1,842.9049821967592,208659.96680262522,6341.393436223744,18,842.9049821967592,35
709,12306,1.510028,103.898025,Taman Flora Heights,Johor,Pasir Gudang,214.0,320000.0,18,0,1,718.2426586031544,213702.18783923722,3657.588683251947,19,718.2426586031544,35
712,19422,2.0601172,102.6001773,Taman Sungai Abong Permai,Johor,Muar,241.0,758000.0,15,0,5,531.1153944637634,60911.524527275156,2859.5459962505897,20,531.1153944637634,33
713,18301,1.54432,103.7865987,Austin Boulevard,Johor,Johor Bahru,419.0,496500.0,22,0,4,1105.0740261736373,201066.78617427498,563.4490673704854,26,563.4490673704854,34
714,18639,0.0,0.0,Taman Bukit Bakri,Johor,Bakri,118.0,318970.0,0,0,0,11148747.730357049,11166707.407256505,11152762.883457733,0,11148747.730357049,26
715,12111,1.8615621,102.9424615,Taman Bukit Pasir,Johor,Batu Pahat,143.0,290000.0,25,0,7,157.86159862315236,103732.98175143726,950.5903896300405,32,157.86159862315236,32
716,18792,0.0,0.0,Taman Gunung Selatan,Johor,Batu Pahat,64.0,50000.0,0,0,0,11148747.730357049,11166707.407256505,11152762.883457733,0,11148747.730357049,31
717,12379,1.603620052,103.8219986,"Taman Intan, Ulu Tiram",Johor,Ulu Tiram,99.0,180000.0,7,0,1,413.30324991105414,201293.7115164521,6852.770083707278,8,413.30324991105414,34
718,19171,0.0,0.0,Taman Rengam Jaya,Johor,Simpang Renggam,90.0,153900.0,0,0,0,11148747.730357049,11166707.407256505,11152762.883457733,0,11148747.730357049,33
719,12832,1.518939972,103.8239975,Taman Ria,Johor,Plentong,91.0,200000.0,15,0,2,624.2593100240914,206076.630700875,3433.87418996703,17,624.2593100240914,23
721,19365,1.6617412,103.58574,Taman Sri Muhibbah,Johor,Kulai,194.5,189000.0,12,0,1,425.3071156754297,175218.6426852089,4798.957466905904,13,425.3071156754297,34
723,16633,1.859069,102.96037,Hillview Loft,Johor,Batu Pahat,320.0,300000.0,25,0,4,728.6567302133226,105443.51948746914,1070.2981671954074,29,728.6567302133226,33
724,10219,0.0,0.0,Taman Setia Indah,Johor,Johor Bahru,166.0,980350.0,0,0,0,11148747.730357049,11166707.407256505,11152762.883457733,0,11148747.730357049,18
725,12215,1.5522577,103.7603977,Taman Daya,Johor,Johor Bahru,206.5,330000.0,17,0,2,784.1901852489345,198108.96164289548,2529.129109818721,19,784.1901852489345,546
726,18306,1.5017922,103.8182753,Bandar Baru Permas Jaya,Johor,Permas Jaya/Senibong,283.5,388000.0,16,0,2,335.54562498558846,206498.6580217482,4274.678189080548,18,335.54562498558846,500
727,9849,1.4603075,103.6514497,Horizon Hills,Johor,Horizon Hills,460.0,850000.0,8,0,1,772.1360376555606,193422.5261923016,2578.168935730377,9,772.1360376555606,481
728,12801,1.5889063,103.8004903,Taman Puteri Wangsa,Johor,Ulu Tiram,226.5,340000.0,9,0,1,957.3817254767015,199970.0416596673,4155.858918777439,10,957.3817254767015,485
729,19106,1.4778655,103.6779466,Taman Perling,Johor,Johor Bahru,237.0,410000.0,11,0,1,791.5980074004312,194751.33728360943,2689.7862861552812,12,791.5980074004312,452
730,13212,1.519799948,103.6610031,Taman Ungku Tun Aminah,Johor,Skudai,216.0,300000.0,23,0,4,471.7567148396843,190613.3770092217,1426.478978343658,27,471.7567148396843,420
731,19151,1.932752,102.9458774,Bandar Putera Indah,Johor,Batu Pahat,176.5,332900.0,3,0,1,1966.853751342641,99172.59881707572,7925.781392075678,4,1966.853751342641,371
732,18323,0.0,0.0,Bandar Selesa Jaya,Johor,Skudai,245.0,235000.0,0,0,0,11148747.730357049,11166707.407256505,11152762.883457733,0,11148747.730357049,391
733,18997,0.0,0.0,Taman Mengkibol,Johor,Kluang,137.0,150000.0,0,0,0,11148747.730357049,11166707.407256505,11152762.883457733,0,11148747.730357049,331
734,14325,1.465399218,103.6455345,Horizon Residence (Dwi Mutiara),Johor,Bukit Indah,438.0,780000.0,8,0,1,723.3885763255649,192560.3770099982,1740.1893346908307,9,723.3885763255649,33
735,18470,2.0193317,103.3269577,Kampung Yap Tau Sah,Johor,Kluang,54.0,200000.0,24,0,7,196.66626862982835,131826.93634330688,1095.649512658714,31,196.66626862982835,29
739,18689,2.536059,102.832204,"Taman Ceria, Segamat",Johor,Segamat,84.0,80000.0,5,0,3,794.597124123986,67775.61093153866,3897.601709994919,8,794.597124123986,31
740,18703,1.5101164,103.7134755,Taman Damansara Aliff,Johor,Johor Bahru,398.5,690000.0,23,0,4,1149.2142949880001,196098.83301959437,1789.535784507456,27,1149.2142949880001,32
741,19505,2.5094823,102.8225408,"Taman Utama, Segamat",Johor,Segamat,234.0,360000.0,15,0,5,561.0193792514293,66419.18629843486,932.6065016260785,20,561.0193792514293,31
742,15273,1.508663,103.885591,"Vista Seri Alam, Bandar Baru Seri Alam",Johor,Masai,275.5,240000.0,17,0,1,148.62096295907006,212574.95658389266,3677.8641201669493,18,148.62096295907006,32
743,12011,1.8611464,102.9318087,Taman Batu Pahat,Johor,Batu Pahat,143.5,260000.0,25,0,7,1082.3525806165378,102856.47493358915,1107.0245031605318,32,1082.3525806165378,30
747,13278,1.414299965,103.6539993,"Teega Residences, Puteri Harbour",Johor,Kota Iskandar,671.0,850000.0,5,0,2,1685.0435904133578,196614.4220116261,2440.3707361162647,7,1685.0435904133578,31
748,15568,1.50248003,103.8509979,East Bay,Johor,Masai,357.5,360000.0,12,0,0,462.15154456009475,209589.24394512217,5724.673266258858,12,462.15154456009475,30
749,16280,1.569990748,103.7746498,Sky Oasis Residences,Johor,Johor Bahru,475.5,429000.0,13,0,2,178.83761339902455,198491.98613318542,1817.7150804975386,15,178.83761339902455,30
751,19123,2.0596508,102.5980144,Taman Pertama Indah,Johor,Muar,225.0,565000.0,16,0,5,294.6605295480585,60785.73444597641,2614.795298734576,21,294.6605295480585,29
754,19281,1.869686,102.9464239,Taman Setia Jaya,Johor,Batu Pahat,191.0,290000.0,21,0,7,285.53917438934127,103499.28333313216,1061.7465433867153,28,285.53917438934127,29
755,18299,1.5606634,103.7791088,Akademik Suite (Akimiat),Johor,Johor Bahru,419.0,235000.0,16,0,3,425.08556159739203,199436.98163728224,682.4904841067794,19,425.08556159739203,28
756,15578,1.479463,103.758628,Bangunan Duta Impian (The Embassy Suites),Johor,Johor Bahru,458.0,370000.0,44,0,10,845.2743250790506,202157.92453938752,535.2160862725879,54,535.2160862725879,29
757,14774,1.474923,103.75962,Pelita Indah Condominium,Johor,Johor Bahru,252.0,400000.0,41,0,10,759.3416863153366,202521.60947536296,742.6318559898584,51,742.6318559898584,28
758,11568,1.547770023,103.7170029,Sky Gardens Residences,Johor,Setia Tropika,427.0,413000.0,12,0,2,96.68970119485114,194226.01165247953,2995.4121156277815,14,96.68970119485114,29
759,28196,1.38645,104.27064,Taman Bayu Damai,Johor,Pengerang,156.5,206646.5,2,0,0,324.3576967481221,256651.99469848897,41785.85809371773,2,324.3576967481221,14
762,18683,2.0210801,102.5634833,Taman Cempaka Selatan,Johor,Muar,167.0,320000.0,21,0,3,1217.9208116531418,61576.79567500065,1675.6557630614986,24,1217.9208116531418,29
765,23928,2.1598768,102.5786473,Bukit Gambir (Jalan Serom),Johor,Sungai Mati,117.5,380000.0,8,0,4,819.6438357396866,51527.44114995175,11267.296668578321,12,819.6438357396866,28
767,14411,1.4877295,103.72359,Lagenda Tasek,Johor,Johor Bahru,369.5,400000.0,27,0,6,761.5523891993593,198384.67259466343,2079.7887067607376,33,761.5523891993593,28
770,19113,0.0,0.0,Taman Permata,Johor,Johor Bahru,136.0,250000.0,0,0,0,11148747.730357049,11166707.407256505,11152762.883457733,0,11148747.730357049,27
771,12889,2.015739,103.061483,Taman Selatan,Johor,Yong Peng,101.0,155000.0,9,0,1,208.11433860281397,105185.42980635833,21044.530372281577,10,208.11433860281397,27
772,28194,0.0,0.0,Taman Serimbun,Johor,Kangkar Pulai,450.0,657275.0,0,0,0,11148747.730357049,11166707.407256505,11152762.883457733,0,11148747.730357049,24
773,19439,2.0501805,103.3153365,"Taman Suria, Kluang",Johor,Kluang,113.5,139000.0,14,0,5,882.1677840138221,129383.52465600809,1385.173867946222,19,882.1677840138221,28
774,15247,1.490303,103.634651,"Villa Krystal, Bandar Selesa Jaya",Johor,Skudai,280.0,240000.0,11,0,3,160.02807318507573,189995.58751172654,1305.7184410014413,14,160.02807318507573,27
775,14500,1.523819,103.690408,Mewah View Luxurious Apartments,Johor,Johor Bahru,288.0,350000.0,21,0,4,580.4303377393254,193119.8699674831,2851.8250865112204,25,580.4303377393254,27
776,11996,1.8657906,102.9379681,Taman Banang,Johor,Batu Pahat,158.0,300000.0,25,0,7,653.991878747327,103049.52057038149,1534.0491892358987,32,653.991878747327,25
778,12514,1.868549943,102.9369965,Taman Kurnia,Johor,Batu Pahat,188.0,285000.0,23,0,7,794.9852828747131,102771.02262262412,1754.216345811497,30,794.9852828747131,27
779,12692,1.448577,103.594376,Taman Nusa Perintis 2,Johor,Gelang Patah,318.0,420000.0,12,0,1,391.2694829955113,189023.1895191808,5153.8612170674605,13,391.2694829955113,27
780,13482,0.0,0.0,Taman Saujana Putra,Johor,Muar,240.0,392600.0,0,0,0,11148747.730357049,11166707.407256505,11152762.883457733,0,11148747.730357049,25
782,13156,2.066139936,102.5510025,Taman Tanjung Gading,Johor,Muar,131.0,170000.0,15,0,4,173.25911731928304,56808.38526899843,2690.375076713569,19,173.25911731928304,27
783,13518,1.498487,103.714399,"Titiwangsa Apartment, Bandar Baru Uda",Johor,Johor Bahru,200.5,210000.0,23,0,3,562.0593327992666,196879.7936164824,2816.1410837291205,26,562.0593327992666,26
784,19542,0.0,0.0,Wisma 2020,Johor,Muar,169.0,130000.0,0,0,0,11148747.730357049,11166707.407256505,11152762.883457733,0,11148747.730357049,25
785,12131,1.5694169,103.8168937,Taman Bukit Tropika,Johor,Ulu Tiram,159.0,700000.0,16,0,0,1167.9205102508122,202612.76663702895,3809.2163216457693,16,1167.9205102508122,25
786,16395,1.4908314,103.845527,Taman Cahaya Kota Putri Shop Apartment,Johor,Masai,170.0,119000.0,15,0,0,513.755155593529,209722.85020846824,5798.373125334181,15,513.755155593529,26
788,12362,1.529129982,103.6809998,Taman Impian,Johor,Skudai,145.0,245000.0,20,0,3,504.4646988681958,191921.44044394896,1692.8269054496984,23,504.4646988681958,26
790,29247,1.5157408,103.6260155,"Taman Mutiara Bestari, Skudai",Johor,Johor Bahru,459.0,1190250.0,20,0,3,551.8846770557875,187618.3646265504,2206.0060473839912,23,551.8846770557875,26
791,19200,2.055683,102.5883241,Taman Sakeh Baru,Johor,Muar,191.0,297500.0,26,0,5,877.3855682591186,60386.17196070581,1532.773647525268,31,877.3855682591186,24
792,19273,1.95716,102.6392729,Taman Seroja,Johor,Parit Jawa,238.0,380000.0,8,0,5,519.04734987996,72353.4706991615,11818.201931628591,13,519.04734987996,26
793,19504,1.504936,103.5220585,"Taman Utama, Pekan Nanas",Johor,Pekan Nanas (Pekan Nenas),143.5,250000.0,6,0,1,965.4223566792697,178847.5361651794,10986.348269968079,7,965.4223566792697,26
794,13460,1.488828,103.821409,The Straits View Residences,Johor,Permas Jaya/Senibong,448.0,1780000.0,15,0,1,196.22274379231365,207538.8213605394,5181.528961160665,16,196.22274379231365,25
795,14019,1.4791249,103.7574302,Aster Court,Johor,Johor Bahru,344.0,300000.0,44,0,10,711.5773174748845,202065.7675580658,673.484880584696,54,673.484880584696,25
796,18357,1.473993,103.7434079,"Kampung Bahru, Johor Bahru",Johor,Johor Bahru,140.0,600000.0,42,0,8,477.66207339025414,201061.49501415406,326.0663998032136,50,326.0663998032136,25
797,13107,1.46946,103.779855,Stulang Laut,Johor,Johor Bahru,236.0,230000.0,18,0,4,952.5677007122716,204744.2757020912,1709.9038803877863,22,952.5677007122716,25
799,18976,2.054317,103.341415,Taman Matahari,Johor,Kluang,103.0,178000.0,8,0,3,486.8411283670562,131943.79152989367,1699.9119894562937,11,486.8411283670562,25
805,18729,1.5225304,103.7001459,Desa Kempas,Johor,Johor Bahru,216.0,200000.0,22,0,3,632.0062339536969,194110.36487519494,2724.3740338051134,25,632.0062339536969,24
806,28005,2.0226773,102.5652569,Jalan Junid/Jonid,Johor,Muar,113.0,320000.0,23,0,3,1150.3484792491595,61556.97052962218,1462.416965379909,26,1150.3484792491595,23
807,28149,1.4650599,103.6553251,Rumah Pangsa Bukit Indah,Johor,Johor Bahru,204.5,150000.0,8,0,1,1368.3883581341352,193475.4439309647,2512.249723758907,9,1368.3883581341352,24
809,12513,1.662009954,103.5930023,Taman Kulai Utama,Johor,Kulai,269.5,449400.0,12,0,1,152.11625616560167,175901.04536323584,4148.023314103778,13,152.11625616560167,24
811,14339,1.467143,103.654375,Indah Court Apartment,Johor,Bukit Indah,312.0,265000.0,7,0,2,1319.7559498119851,193257.18560002232,2291.77210701791,9,1319.7559498119851,23
812,28030,1.5046085,103.5080271,Kampung Baru Pekan Nenas,Johor,Pekan Nanas (Pekan Nenas),41.0,180000.0,6,0,2,759.6381814730371,177614.1166693893,12499.766153301596,8,759.6381814730371,23
813,18540,1.5124754,103.8801956,"Summer Park Townhouse (Pangsapuri Alam Jaya), Bandar Baru Seri Alam",Johor,Masai,227.0,220000.0,17,0,1,788.1683706876873,211844.45146339462,4286.921749294687,18,788.1683706876873,23
814,18582,0.0,0.0,Taman Bakariah,Johor,Muar,139.0,375000.0,0,0,0,11148747.730357049,11166707.407256505,11152762.883457733,0,11148747.730357049,21
815,12261,1.502682,103.7049851,Taman Desa Rahmat,Johor,Tampoi,129.0,190000.0,22,0,2,265.0442324489763,195748.13874632856,3038.9787933087546,24,265.0442324489763,22
816,18882,1.5125598,103.7058297,Taman Kemas,Johor,Johor Bahru,222.0,310000.0,22,0,4,404.3997481375374,195236.3663374642,2326.321196838036,26,404.3997481375374,23
819,19304,2.0197454,103.0669071,Taman Sri Aman,Johor,Muar,96.0,120000.0,9,0,1,633.2699661305048,105511.40376386898,21757.81267094963,10,633.2699661305048,23
820,13076,1.565126,103.597906,Taman Sri Pulai Perdana 2,Johor,Kangkar Pulai,299.0,500000.0,9,0,1,863.6197297047601,181994.04842011145,4088.6407702634706,10,863.6197297047601,23
821,28190,2.4399739,103.8234745,Taman Sutera Harmoni,Johor,Mersing,129.0,255000.0,10,0,2,1240.4654135650178,177565.59451677086,2746.291161454147,12,1240.4654135650178,11
823,13448,1.505959988,103.6569977,The Seed @ Sutera Utama,Johor,Skudai,420.5,544000.0,22,0,2,388.77486798841454,191084.68410772044,1468.5071564935886,24,388.77486798841454,22
824,15279,1.47141,103.760183,The Wadihana,Johor,Johor Bahru,258.0,468000.0,39,0,9,587.9743699740704,202784.32576069073,652.0262451127755,48,587.9743699740704,23
826,18558,2.0186466,102.5925095,Taman Amansari,Johor,Johor Bahru,107.0,340000.0,13,0,3,703.3031341416927,63797.69368100766,3384.704959993358,16,703.3031341416927,21
827,18560,1.8368478,102.9300269,Taman Ampang Jaya,Johor,Batu Pahat,232.0,370000.0,19,0,5,784.6589837139707,104467.95124933707,1104.8365953810546,24,784.6589837139707,5
829,28147,1.9124272,103.1873931,"Taman Bukit Indah, Sri Gading",Johor,Ayer Hitam,91.0,108500.0,4,0,1,715.0688566564347,122971.62661198722,19649.620391217417,5,715.0688566564347,22
830,12201,1.8643385,102.9244199,"Taman Damai, Skudai",Johor,Batu Pahat,92.0,110000.0,18,0,6,393.20056942998406,102001.80572496355,741.7995337146765,24,393.20056942998406,21
831,12485,1.503020048,103.6959991,Taman Kobena,Johor,Tampoi,182.0,235000.0,20,0,2,502.5596049853422,194888.8062532423,3801.044703325162,22,502.5596049853422,21
833,19127,2.0513406,102.6463084,"Taman Perwira, Bakri",Johor,Bakri,120.5,360000.0,6,0,2,1047.8749154633115,65191.502819535985,8000.3872437361,8,1047.8749154633115,20
834,11531,1.542770028,103.7279968,Setia Tropika,Johor,Setia Tropika,376.0,610000.0,10,0,2,1323.7296127677837,195558.24704262908,2350.4997974119065,12,1323.7296127677837,331
835,12782,1.542449951,103.5810013,Taman Pulai Indah,Johor,Kangkar Pulai,247.0,380000.0,6,0,1,1176.0302904052992,181814.2300076988,4094.857052674719,7,1176.0302904052992,337
836,19160,1.6523929,103.5733333,Taman Putri,Johor,Kulai,201.0,330000.0,9,0,0,138.50941453043075,174558.5653430004,5671.637684350142,9,138.50941453043075,331
837,18311,1.642605,103.6094855,Bandar Indahpura,Johor,Kulai,261.0,430000.0,15,0,4,720.3329871073996,178569.1469105111,1505.8403426437926,19,720.3329871073996,312
838,13006,1.508559942,103.6429977,Taman Skudai Baru,Johor,Skudai,245.0,350000.0,18,0,1,437.0192556182581,189629.68895347236,2480.8077929797473,19,437.0192556182581,313
839,12836,1.487949967,103.8659973,Taman Rinting,Johor,Masai,192.0,330000.0,20,0,1,208.10953676051074,211843.4343933413,3528.997616362318,21,208.10953676051074,312
840,12643,1.548329949,103.7809982,Taman Mount Austin,Johor,Johor Bahru,381.0,490000.0,22,0,5,723.1261188170536,200304.90565287494,848.9212660072249,27,723.1261188170536,307
841,18304,1.552895,3.5886619,Bandar Baru Kangkar Pulai,Johor,Kangkar Pulai,192.5,345800.0,0,0,0,10734525.210818412,10750728.583581181,10738691.344214082,0,10734525.210818412,260
842,8840,1.5719599723816,103.73500061035,Bandar Dato Onn,Johor,Johor Bahru,341.0,610000.0,6,0,1,1571.5207150332026,194567.95474790517,5617.792278299377,7,1571.5207150332026,297
843,12041,1.6029538,103.793271,Taman Bestari Indah,Johor,Ulu Tiram,271.0,370000.0,7,0,0,1427.5048881441562,198517.72327161397,5343.859717056732,7,1427.5048881441562,292
844,19144,0.0,0.0,Taman Pulai Jaya,Johor,Johor Bahru,251.5,350000.0,0,0,0,11148747.730357049,11166707.407256505,11152762.883457733,0,11148747.730357049,22
845,19236,2.12758,102.5554,"Taman Selesa, Sungai Mati",Johor,Sungai Mati,175.5,276500.0,8,0,4,351.7833117450466,52076.83716321283,7952.016039482311,12,351.7833117450466,22
847,19406,2.069609,102.6000631,Taman Sri Terap,Johor,Muar,152.0,370000.0,12,0,5,278.61221154708784,60138.64183114105,3142.45481668347,17,278.61221154708784,18
848,13455,1.483365,103.66315,The Sky Executive Suites,Johor,Johor Bahru,523.5,417500.0,14,0,2,1101.8127985390952,193046.98065531504,1147.9477635671012,16,1101.8127985390952,22
849,15407,1.5012268,103.788665,Bayu Marina,Johor,Johor Bahru,348.0,282500.0,15,0,4,703.2397908836422,203714.40967025975,2418.3008129490036,19,703.2397908836422,20
850,28014,1.8821494,102.9731855,Jalan Panchor,Johor,Batu Pahat,210.0,370002.0,9,0,3,975.4253031443975,104968.07724452799,3380.573803707813,12,975.4253031443975,12
852,23899,0.0,0.0,Taman Akasia,Johor,Segamat,63.0,80000.0,0,0,0,11148747.730357049,11166707.407256505,11152762.883457733,0,11148747.730357049,19
853,16636,0.0,0.0,Taman Plentong Utama,Johor,Plentong,119.0,90000.0,0,0,0,11148747.730357049,11166707.407256505,11152762.883457733,0,11148747.730357049,21
856,28057,1.9001259,102.9005103,Taman Soga Sutera,Johor,Batu Pahat,206.0,552957.0,4,0,1,1532.9302125760955,97417.29311429354,5259.973708585434,5,1532.9302125760955,19
859,19515,2.415391,103.8384951,"Taman Wawasan, Mersing",Johor,Mersing,129.0,190000.0,9,0,2,763.3085962390007,179297.40491761945,1717.2703424302179,11,763.3085962390007,19
860,15640,1.462182,103.745215,Golden Sands Seaview Residence,Johor,Johor Bahru,558.0,336500.0,29,0,5,515.5246061331956,201943.6376735573,412.24576561064697,34,412.24576561064697,20
861,8822,2.065173,102.589844,Pangsapuri Aroma Park,Johor,Muar,100.0,85250.0,18,0,5,681.6619199661019,59720.93500611888,1906.193161278338,23,681.6619199661019,20
862,29173,1.4841575,103.4283061,Pontian Perdana,Johor,Pontian,131.0,558000.0,8,0,3,1348.4999314140255,171995.37322472554,4980.645838383665,11,1348.4999314140255,20
863,11572,1.547860026,103.7139969,Sky Peak Residences,Johor,Setia Tropika,481.5,512090.0,10,0,1,183.34604574801168,193935.4966534526,3115.8485519137184,11,183.34604574801168,20
864,14974,1.511067,103.683461,Sri Akasia,Johor,Tampoi,316.0,340000.0,22,0,3,660.8555532226169,193234.04135094542,2995.104553441988,25,660.8555532226169,20
865,18578,2.028062,102.5663393,"Taman Bahagia, Muar",Johor,Muar,106.5,360000.0,28,0,3,543.9550329526475,61160.90660415227,856.0164121251349,31,543.9550329526475,16
867,24072,1.6533364,103.5866238,Taman Gemilang Height,Johor,Kulai,246.0,809000.0,12,0,1,780.8738897713273,175775.5180939216,4296.5931923468725,13,780.8738897713273,19
871,19360,2.54813,102.766518,"Taman Sri Mewah, Buloh Kasap",Johor,Segamat,147.0,226000.0,3,0,1,555.1434942940912,60719.63726736625,7215.048711215648,4,555.1434942940912,20
872,19363,1.83545,103.3049,"Taman Sri Mewah, Simpang Renggam",Johor,Simpang Renggam,104.0,180000.0,4,0,3,1020.6368640027574,138548.46586932353,21473.796148287624,7,1020.6368640027574,19
875,19421,2.0600636,102.6050001,Taman Sungai Abong Mulia,Johor,Muar,216.0,380000.0,12,0,3,753.9232778562223,61282.58546596833,3392.7105424328743,15,753.9232778562223,18
878,8782,1.5845241,103.7408761,Austin Hills,Johor,Johor Bahru,465.0,330000.0,3,0,1,2548.6585926473977,194433.22481505887,5650.304175017433,4,2548.6585926473977,19
879,28002,2.0258859,102.6095629,Kampung Parit Raja Darat,Johor,Muar,125.0,310000.0,10,0,3,682.3060392787884,64419.40925749911,4829.216695981501,13,682.3060392787884,19
882,29251,0.0,0.0,Taman Bintang Jaya,Johor,Muar,157.0,405800.0,0,0,0,11148747.730357049,11166707.407256505,11152762.883457733,0,11148747.730357049,19
883,12147,1.4970777,103.8557136,Taman Cahaya Kota Putri,Johor,Masai,307.0,1100000.0,15,0,0,337.18313767651506,210344.67135911534,4980.920701137583,15,337.18313767651506,19
886,23598,0.0,0.0,Taman Jaya 2,Johor,Muar,297.0,545000.0,0,0,0,11148747.730357049,11166707.407256505,11152762.883457733,0,11148747.730357049,19
887,9739,0.0,0.0,Taman Murni,Johor,Batu Pahat,119.0,220000.0,0,0,0,11148747.730357049,11166707.407256505,11152762.883457733,0,11148747.730357049,17
888,29169,1.4718155,103.5795062,Taman Nusa Mas,Johor,Gelang Patah,139.0,150000.0,11,0,2,416.7803040744864,186168.91508041846,6483.948801878632,13,416.7803040744864,19
889,12697,1.837360024,102.9489975,Taman Orchard Heights,Johor,Batu Pahat,134.0,85000.0,23,0,5,383.7408747010963,106019.77150698686,1013.6237870355591,28,383.7408747010963,19
895,19506,2.002149,103.069846,"Taman Utama, Yong Peng",Johor,Yong Peng,155.5,255000.0,8,0,1,1273.8546176163068,106717.42571874292,20433.633983128882,9,1273.8546176163068,16
896,9493,1.488710046,103.723999,Desa Muafakat,Johor,Johor Bahru,196.0,150000.0,29,0,6,647.5205564662967,198363.89565015843,2020.1542722245667,35,647.5205564662967,18
898,18757,1.8656584,102.9331953,"Taman Emas, Batu Pahat",Johor,Batu Pahat,185.0,295000.0,24,0,6,1141.5742724981947,102652.07761134268,1474.5822271316165,30,1141.5742724981947,18
900,28007,2.071782,102.5503604,Taman Kesang Mawar,Johor,Muar,134.5,287500.0,7,0,0,337.9242514360354,56281.726284916,3017.454497677365,7,337.9242514360354,16
902,12679,1.863870025,102.927002,Taman Nira,Johor,Batu Pahat,118.0,280000.0,22,0,7,613.0641867960921,102253.99432336596,832.3404473541478,29,613.0641867960921,18
903,28048,1.8203167,103.3084214,Taman Rekamas 3,Johor,Simpang Renggam,107.0,180000.0,5,0,2,544.1473091035431,139732.11137928325,23083.244451819275,7,544.1473091035431,17
904,16054,1.501919,103.767183,Taman Seri Setanggi,Johor,Johor Bahru,235.0,200000.0,27,0,7,559.3544834836563,201639.75486307402,2151.5500640904665,34,559.3544834836563,18
906,9641,1.500339985,103.8130035,"Fair View, Bandar Baru Permas Jaya",Johor,Permas Jaya/Senibong,326.0,333000.0,14,0,2,469.4463272487006,206079.08882230532,4124.081884128222,16,469.4463272487006,17
907,18345,1.6516819,103.5986936,"Flat Temenggong, Bandar Indahpura",Johor,Kulai,81.0,50000.0,14,0,3,605.2047987699921,177024.9243823097,2996.178512909103,17,605.2047987699921,17
909,10593,1.5029025,103.8239456,"Mon Bisca, Bandar Baru Permas Jaya",Johor,Permas Jaya/Senibong,240.0,230000.0,16,0,2,405.5680868135479,206976.62885466364,4560.698047780372,18,405.5680868135479,17
910,24063,1.4958333,103.3836446,Parit Semerah,Johor,Pontian,136.5,450000.0,15,0,2,398.47270147691745,167335.19173186526,418.5135853641143,17,398.47270147691745,16
911,18537,1.4914814,103.8367712,Senibong Villas,Johor,Masai,475.0,1800000.0,19,0,1,550.0323851545558,208850.1257826468,6455.290810825915,20,550.0323851545558,17
912,15030,1.461795506,103.7451625,Sri Samudera Seaview Residence Suites,Johor,Johor Bahru,518.0,330000.0,28,0,5,539.0840707206594,201962.19919629113,371.6188597072052,33,371.6188597072052,17
913,11800,1.480780005,103.7740021,Stulang View,Johor,Johor Bahru,357.0,570000.0,32,0,6,197.41755120289528,203523.78133832957,392.2373222049042,38,197.41755120289528,17
916,12158,1.4880257,103.9083325,Taman Cendana,Johor,Pasir Gudang,135.0,70000.0,18,0,5,306.01799968772417,215906.33396185574,1455.79409775442,23,306.01799968772417,15
921,18895,2.0334539,102.5570211,Taman Khalidi Bharu,Johor,Batu Pahat,91.0,225000.0,26,0,3,398.9064802333717,60053.82062068661,1168.5607928167117,29,398.9064802333717,12
926,19148,0.0,0.0,Taman Purnama 1 Simpang Renggam,Johor,Simpang Renggam,110.0,180000.0,0,0,0,11148747.730357049,11166707.407256505,11152762.883457733,0,11148747.730357049,17
927,28197,1.8795783,102.9478045,Taman Sinar Berlian,Johor,Batu Pahat,308.0,674000.0,13,0,4,15.680488966055114,102928.37612908844,2056.520013237446,17,15.680488966055114,16
930,9124,1.492619991,103.8499985,D'Carlton Seaview Residences (Seri Mega),Johor,Masai,502.0,510000.0,13,0,0,299.7164673450373,210048.88577987795,5380.023502872089,13,299.7164673450373,15
931,14179,1.4835613,103.7141454,Danga View,Johor,Johor Bahru,385.5,400000.0,18,0,2,1034.6360785052898,197755.98290813202,3129.769289002492,20,1034.6360785052898,16
932,9756,1.550863,103.763434,Daya View Apartment,Johor,Johor Bahru,216.0,200000.0,19,0,2,915.5536384439774,198478.30008179162,2228.3917038885593,21,915.5536384439774,16
934,28174,1.5183037,103.7845664,Molek Regency,Johor,Johor Bahru,557.5,385430.0,13,0,3,464.78266478704654,202343.37865573645,2217.9024875120526,16,464.78266478704654,16
935,18680,1.885735,102.9531398,Taman Cemerlang Jaya,Johor,Batu Pahat,211.0,430000.0,11,0,5,891.0742691431783,102967.54368040335,2716.785937344048,16,891.0742691431783,16
936,18732,1.376892,103.5922224,Taman Desa Paya Mengkuang,Johor,Johor Bahru,164.5,200000.0,5,0,3,1125.1635181539561,193647.87492617386,7295.630390828603,8,1125.1635181539561,16
937,16403,1.5145768,103.9230663,Taman Desa Rakyat Perdana,Johor,Pasir Gudang,84.0,60000.0,7,0,2,354.5071689502937,215884.8472066267,4816.82764797579,9,354.5071689502937,16
938,18788,2.2895351,102.5569661,Taman Gunung Emas,Johor,Tangkak,98.0,137500.0,6,0,2,606.6407987411618,41418.89752039694,2241.1736832900197,8,606.6407987411618,16
943,19059,1.828135,103.3030652,"Taman Orkid, Simpang Renggam",Johor,Simpang Renggam,87.0,215000.0,5,0,2,589.954242205764,138779.72881680552,22303.589635995373,7,589.954242205764,16
945,12231,1.560979962,103.814003,Taman Desa Cemerlang,Johor,Ulu Tiram,232.0,380000.0,19,0,1,471.3612747220956,202789.86710182342,2999.316144560373,20,471.3612747220956,290
946,12593,1.4882415,103.8534791,Taman Megah Ria,Johor,Masai,205.0,349000.0,13,0,0,331.24503272319924,210629.4423194986,4869.463471208096,13,331.24503272319924,282
947,12642,1.526059985,103.7900009,Taman Molek,Johor,Johor Bahru,255.5,447500.0,13,0,3,608.0333600483713,202420.56569049667,1171.995013094634,16,608.0333600483713,250
948,13049,2.029383,103.300418,Taman Sri Kluang,Johor,Kluang,118.5,182500.0,22,0,3,411.9697187523819,128672.901792168,1634.7258019132742,25,411.9697187523819,236
949,18863,1.577476,103.7755283,JP Perdana (Jaya Putra Perdana),Johor,Johor Bahru,373.5,452000.0,13,0,1,655.6676266541167,198166.0106428553,2534.1680811617694,14,655.6676266541167,264
950,24055,1.466322,103.6182048,Taman Nusa Sentral,Johor,Iskandar Puteri (Nusajaya),408.5,610000.0,0,0,1,3054.6693715936176,190017.36759924048,2539.5431048395603,1,2539.5431048395603,248
951,12281,1.5628509,103.7957946,Taman Desa Tebrau,Johor,Johor Bahru,304.0,580000.0,24,0,3,357.4534481916513,200926.14033867157,1638.6725721548391,27,357.4534481916513,249
952,12729,1.578660011,103.7939987,Taman Pelangi Indah,Johor,Ulu Tiram,244.0,500000.0,13,0,1,755.7418641769051,199890.66492242945,2817.877633352291,14,755.7418641769051,250
953,12365,1.5528305,103.6782394,Taman Impian Emas,Johor,Skudai,287.0,590000.0,12,0,2,60.19362039740379,190262.10839920418,2706.405233029259,14,60.19362039740379,241
954,13016,1.51662004,103.762001,Taman Sri Amar,Johor,Johor Bahru,189.5,260000.0,18,0,4,256.4226730471293,200295.142606713,3625.2677973642135,22,256.4226730471293,16
958,19486,1.8354871,103.299022,Taman Tiara Perdana,Johor,Simpang Renggam,84.0,114334.0,3,0,3,1479.1659444621698,137980.94173786856,21572.118833205506,6,1479.1659444621698,10
960,19523,1.8520455,103.0989041,"Taman Wira, Parit Raja",Johor,Parit Raja,120.5,322500.0,7,0,3,562.2054030894906,118213.07989990548,16487.536244284933,10,562.2054030894906,16
961,10409,1.4310632,103.6456895,1Medini & Medini Signature,Johor,Iskandar Puteri (Nusajaya),,,5,0,2,919.857890241943,194776.12584419784,1230.0826363220801,7,919.857890241943,0
962,23604,0.0,0.0,Bandar Penggaram,Johor,Batu Pahat,140.0,340000.0,0,0,0,11148747.730357049,11166707.407256505,11152762.883457733,0,11148747.730357049,11
964,9339,1.553259969,103.7129974,D'Secret Garden,Johor,Johor Bahru,397.0,440000.0,10,0,1,751.0155466475754,193529.2908964824,3712.574627503125,11,751.0155466475754,15
965,10271,0.0,0.0,Jentayu Residensi,Johor,Tampoi,418.0,400000.0,0,0,0,11148747.730357049,11166707.407256505,11152762.883457733,0,11148747.730357049,15
967,16212,1.5031467,103.73703,Scott Towers,Johor,Johor Bahru,403.0,390000.0,31,0,5,246.97591494005317,198724.54423660776,1484.3875462869273,36,246.97591494005317,15
969,18554,1.7402431,103.9095184,Taman Aman / Mawai,Johor,Kota Tinggi,67.0,60000.0,14,0,2,477.85225692008146,203524.40858287117,1214.607758635016,16,477.85225692008146,15
970,10327,0.0,0.0,Taman Bendahara,Johor,Segamat,91.0,160000.0,0,0,0,11148747.730357049,11166707.407256505,11152762.883457733,0,11148747.730357049,3
975,18965,0.0,0.0,Taman Maluri,Johor,Ulu Tiram,169.0,330000.0,0,0,0,11148747.730357049,11166707.407256505,11152762.883457733,0,11148747.730357049,15
980,19314,1.7904734,103.3116898,"Taman Sri Bayu, Simpang Renggam",Johor,Simpang Renggam,103.0,200000.0,4,0,1,614.125043150449,141750.10743792518,26330.004718146436,5,614.125043150449,15
982,28058,2.002228,102.5992072,Taman Sri Lantapuri,Johor,Muar,187.5,348000.0,7,0,2,711.0991678920034,65674.40037807614,5133.869584880307,9,711.0991678920034,14
984,19420,2.0584491,102.5792258,Taman Sungai Abong Indah,Johor,Muar,238.0,424000.0,30,0,6,664.45653087581,59486.97904299497,528.2272794569848,36,528.2272794569848,14
985,28170,2.0615984,102.6087251,"Taman Sutera, Sungai Abong",Johor,Muar,69.0,191667.0,10,0,2,970.5685493223875,61444.71076212066,3823.2190009206456,12,970.5685493223875,8
986,29151,2.0553129,102.5931288,Jalan Haji Abdullah,Johor,Muar,452.5,988000.0,27,0,6,434.56814440539307,60773.479211403115,2068.5964739423616,33,434.56814440539307,14
988,16172,1.652787,103.5836329,Rose Villa Apartment,Johor,Kulai,144.5,125000.0,12,0,1,722.2842241750147,175520.3413584991,4587.858396238905,13,722.2842241750147,14
989,16189,1.541011,103.818868,Rumah Pangsa Sri Orkid,Johor,Johor Bahru,122.5,90000.0,19,0,2,693.1380299892157,204355.06607740003,2554.6391403648468,21,693.1380299892157,14
990,16282,1.469352389,103.6529333,Sky View,Johor,Bukit Indah,548.5,480000.0,9,0,2,1277.7098283050966,192986.09951772107,2024.7057740119726,11,1277.7098283050966,14
991,16286,1.462224519,103.7705469,Skysuites @ Meldrum Hills,Johor,Johor Bahru,688.0,440000.0,21,0,6,940.769081240069,204303.98252434467,1286.4565176633312,27,940.769081240069,13
992,16294,1.496724113,103.7765591,SouthKey Mosaic,Johor,Johor Bahru,668.0,691487.5,20,0,6,451.2662920251793,202829.1820266089,1399.2619222996718,26,451.2662920251793,14
993,12049,1.8626543,102.9769577,Taman Broleh,Johor,Batu Pahat,130.0,215000.0,9,0,2,632.2715612796426,106629.8824372116,2892.1947380809397,11,632.2715612796426,14
994,18733,2.0077012,103.0653868,Taman Desa Puteh,Johor,Yong Peng,149.0,220000.0,9,0,1,672.1518917012504,105988.60604002114,20595.27044962372,10,672.1518917012504,13
996,18789,2.0301265,103.3341237,Taman Gunung Lambak,Johor,Kluang,122.0,250000.0,20,0,8,809.1740424678619,132129.2020562661,340.87408472032513,28,340.87408472032513,14
997,18804,1.8368976,103.3047589,"Taman Harmoni, Simpang Renggam",Johor,Simpang Renggam,93.5,125000.0,3,0,2,1164.4601537152512,138454.68361622197,21317.599870400718,5,1164.4601537152512,14
999,12482,2.044179916,103.3190002,Taman Kluang,Johor,Kluang,114.0,204000.0,18,0,6,670.2374060045607,130000.1911556218,1006.1305523453425,24,670.2374060045607,14
1002,23521,1.999219,102.60843,Taman Limbong Harmoni,Johor,Muar,109.5,394000.0,7,0,4,472.54616732196337,66581.91978218294,6105.444895593199,11,472.54616732196337,14
1003,19084,1.9974467,102.6127739,Taman Parit Unas Permai,Johor,Muar,195.0,300000.0,9,0,6,949.5559761352027,67041.28323757072,6599.755643709767,15,949.5559761352027,11
1007,28056,1.8482116,102.9593788,Taman Soga Perdana,Johor,Batu Pahat,279.0,428770.0,22,0,5,1042.9186196167664,106123.91318204817,1717.7992164263737,27,1042.9186196167664,14
1010,13128,1.8158783,103.3182189,"Taman Suria, Simpang Renggam",Johor,Simpang Renggam,106.5,166500.0,6,0,2,469.95857302383115,140920.2852630707,23473.272112990173,8,469.95857302383115,14
1011,13916,1.4648628,103.7378711,Aloha Tower Condominium,Johor,Johor Bahru,270.0,430000.0,28,0,6,151.04987802786246,201097.80764404548,1136.7509777006248,34,151.04987802786246,13
1013,9051,1.4681575,103.7661248,Bukit Chagar Luxurious Apartment (Pine View Luxurious Apartment),Johor,Johor Bahru,654.0,570000.0,34,0,7,411.3441384436888,203534.98797962736,794.3201864473015,41,411.3441384436888,13
1014,18368,1.5006254,103.6128055,Kampung Baru Lima Kedai,Johor,Johor Bahru,73.0,150000.0,8,0,1,675.72317356438,187346.25602167033,3642.112141489683,9,675.72317356438,13
1015,18429,1.6041689,103.8047797,Kampung Oren,Johor,Ulu Tiram,96.0,150000.0,9,0,1,691.0625128012792,199578.3415091555,5880.946097379228,10,691.0625128012792,12
1017,18508,1.4691778,103.6847302,Pangsapuri Ria,Johor,Masai,260.0,310000.0,11,0,1,788.4065876919949,195915.02019201883,3886.8045377942494,12,788.4065876919949,13
1018,23885,1.3757386,103.5906413,Pines Residence,Johor,Gelang Patah,414.5,400000.0,5,0,3,1339.3457401261078,193589.18147110034,7507.854081377904,8,1339.3457401261078,12
1019,17198,1.5074722,103.8620833,Sapphire 8 @ Bandar Seri Alam,Johor,Masai,393.0,630000.0,19,0,0,705.3052104620282,210375.13685180567,5040.4941901342745,19,705.3052104620282,13
1021,18889,0.0,0.0,Taman Kenari,Johor,Pagoh,64.0,75000.0,0,0,0,11148747.730357049,11166707.407256505,11152762.883457733,0,11148747.730357049,11
1023,18960,1.6832347,3.1565137,"Taman Maju Jaya, Rengit",Johor,Rengit,130.0,200000.0,0,0,0,10780963.895606393,10796904.511465238,10785151.509247884,0,10780963.895606393,11
1028,19169,1.8177491,103.3101162,Taman Rekamas,Johor,Simpang Renggam,88.0,160000.0,6,0,2,793.3607809949444,140039.04111606957,23344.664853160284,8,793.3607809949444,13
1031,19496,2.0646547,102.5541578,Taman Tun Syed Nasir,Johor,Muar,59.0,80000.0,22,0,4,218.34771038185002,57158.21253959182,2305.126376171094,26,218.34771038185002,13
1032,15361,1.5676946,103.7541599,Apartment Setia Baiduri,Johor,Johor Bahru,154.0,101250.0,9,0,0,246.58725558099354,196645.9406171713,3454.406127971976,9,246.58725558099354,12
1033,23909,0.0,0.0,Laman Indah 1,Johor,Iskandar Puteri (Nusajaya),139.0,150000.0,0,0,0,11148747.730357049,11166707.407256505,11152762.883457733,0,11148747.730357049,12
1034,9214,1.483938,103.684525,Perling Apartment,Johor,Johor Bahru,299.0,364000.0,16,0,1,51.52671051447897,194984.37337523254,3018.025609640298,17,51.52671051447897,12
1039,18725,0.0,0.0,Taman Desa Idaman,Johor,Senai,184.0,267500.0,0,0,0,11148747.730357049,11166707.407256505,11152762.883457733,0,11148747.730357049,12
1043,12385,2.458719969,103.8199997,Taman Intan Jaya,Johor,Mersing,111.0,160000.0,4,0,2,843.9925260390713,177159.83207041078,4343.738702530558,6,843.9925260390713,10
1047,18992,1.8529225,103.0988782,Taman Melewar,Johor,Parit Raja,146.0,225000.0,7,0,3,468.2336880000742,118155.2695989114,16478.946395668485,10,468.2336880000742,12
1053,13560,1.477946,103.761983,Twin Galaxy,Johor,Johor Bahru,632.5,386500.0,40,0,10,818.6199777576498,202562.85851993132,320.3552380789706,50,320.3552380789706,12
1054,28195,1.5291655,103.5814423,Taman Pulai Mutiara,Johor,Kangkar Pulai,348.0,433800.0,2,0,0,2644.6150171609866,182681.90941064258,3946.770181528023,2,2644.6150171609866,185
1055,11465,1.581660032,103.7490005,Seri Austin,Johor,Johor Bahru,386.0,600000.0,4,0,0,1885.1921879093272,195374.55856918305,4731.1521668515325,4,1885.1921879093272,239
