name,sub_type_label,sub_type_extra,sub_type,category,line_name,place_id,completion_year,type,city,district,public_type,curriculum_offered,latitude,longitude
Sekolah Menengah Kebangsaan Kepong Baru,Secondary,['SM Kebangsaan'],secondary,education,None,,None,Public School,None,None,['SM Kebangsaan'],None,3.1977700000000002,101.647
Sekolah Kebangsaan Taman Kepong,Primary,['Kebangsaan'],primary,education,None,,None,Public School,None,None,['Kebangsaan'],None,3.19895,101.648
Sekolah Kebangsaan Kepong Baru,Primary,['Kebangsaan'],primary,education,None,,None,Public School,None,None,['Kebangsaan'],None,3.205899,101.645528
Sekolah Kebangsaan Menjalara,Primary,['Kebangsaan'],primary,education,None,,None,Public School,None,None,['Kebangsaan'],None,3.193969,101.637578
Sekolah Menengah Kebangsaan Taman Bukit Maluri,Secondary,['SM Kebangsaan'],secondary,education,None,,None,Public School,None,None,['SM Kebangsaan'],None,3.20245,101.634
Sekolah Menengah Kebangsaan Menjalara,Secondary,['SM Kebangsaan'],secondary,education,None,,None,Public School,None,None,['SM Kebangsaan'],None,3.193501,101.636275
Sekolah Kebangsaan Seri Kepong,Primary,['Kebangsaan'],primary,education,None,,None,Public School,None,None,['Kebangsaan'],None,3.1912700000000003,101.647
Sekolah Jenis Kebangsaan (Tamil) Ladang Edinburgh,Primary,['Jenis Kebangsaan (T)'],primary,education,None,,None,Public School,None,None,['Jenis Kebangsaan (T)'],None,3.2025799999999998,101.633
Sekolah Kebangsaan Taman Bukit Maluri,Primary,['Kebangsaan'],cluster,education,None,,None,Public School,None,None,['Kebangsaan'],None,3.2037,101.633
Sekolah Menengah Kebangsaan Sinar Bintang,Secondary,['SM Kebangsaan'],secondary,education,None,,None,Public School,None,None,['SM Kebangsaan'],None,3.1886799999999997,101.645
Tzu Chi International School,Primary Secondary A-Levels,None,primary,education,None,,None,International School,None,None,None,Cambridge,3.2095517000000005,101.6495568
Sekolah Jenis Kebangsaan (Cina) Kepong 3,Primary,['Jenis Kebangsaan (C)'],primary,education,None,,None,Public School,None,None,['Jenis Kebangsaan (C)'],None,3.18853,101.640709
Kolej Tingkatan Enam Desa Mahkota,Secondary,['Kolej'],secondary,education,None,,None,Public School,None,None,['Kolej'],None,3.188694,101.639831
The International School @ Parkcity,Primary Secondary Preschool,None,primary,education,None,,None,International School,None,None,None,British,3.1879,101.6376
Brainy Bunch - Bandar Manjalara (new),Elementary High Kindergarten,None,elementary,education,None,,None,Preschool,None,None,None,Montessori,3.1938767000000006,101.6301282
Sekolah Jenis Kebangsaan (Tamil) Segambut,Primary,['Jenis Kebangsaan (T)'],primary,education,None,,None,Public School,None,None,['Jenis Kebangsaan (T)'],None,3.195592,101.658441
Sekolah Kebangsaan Taman Seri Sinar,Primary,['Kebangsaan'],primary,education,None,,None,Public School,None,None,['Kebangsaan'],None,3.18827,101.654
Pintar College,Tertiary,None,tertiary,education,None,,None,Private College,None,None,None,None,3.2146369999999997,101.635976
Sekolah Jenis Kebangsaan (Cina) Kepong 1,Primary,['Jenis Kebangsaan (C)'],primary,education,None,,None,Public School,None,None,['Jenis Kebangsaan (C)'],None,3.214727,101.634847
Sma Kuala Lumpur,Secondary,['SMK Agama'],secondary,education,None,,None,Public School,None,None,['SMK Agama'],None,3.1973700000000003,101.626
Sekolah Jenis Kebangsaan (Cina) Kepong 2,Primary,['Jenis Kebangsaan (C)'],primary,education,None,,None,Public School,None,None,['Jenis Kebangsaan (C)'],None,3.215564,101.634744
Sekolah Menengah Kebangsaan Segambut Jaya,Secondary,['SM Kebangsaan'],secondary,education,None,,None,Public School,None,None,['SM Kebangsaan'],None,3.18552,101.65299999999999
Brainy Bunch -  Segambut (new),Elementary High Kindergarten,None,elementary,education,None,,None,Preschool,None,None,None,Montessori,3.1852185,101.6537584
Sekolah Kebangsaan Bandar Baru Sri Damansara,Primary,['Kebangsaan'],primary,education,None,,None,Public School,None,None,['Kebangsaan'],None,3.206248,101.62431600000001
Hibiscus International School,Primary Secondary Early years,None,primary,education,None,,None,International School,None,None,None,British,3.1900275000000002,101.6602254
Sekolah Jenis Kebangsaan (Cina) Jinjang Selatan,Primary,['Jenis Kebangsaan (C)'],primary,education,None,,None,Public School,None,None,['Jenis Kebangsaan (C)'],None,3.204414,101.66471700000001
Sekolah Kebangsaan La Salle 1 Jinjang,Primary,['Kebangsaan'],primary,education,None,,None,Public School,None,None,['Kebangsaan'],None,3.213833,101.6618
Sekolah Kebangsaan La Salle 2 Jinjang,Primary,['Kebangsaan'],primary,education,None,,None,Public School,None,None,['Kebangsaan'],None,3.213833,101.6618
Sekolah Kebangsaan Taman Ehsan,Primary,['Kebangsaan'],primary,education,None,,None,Public School,None,None,['Kebangsaan'],None,3.219831,101.63068100000001
Sekolah Kebangsaan Segambut Makmur,Primary,['Kebangsaan'],primary,education,None,,None,Public School,None,None,['Kebangsaan'],None,3.1811,101.65700000000001
Lycee Francais de Kuala Lumpur (LFKL),Primary Secondary Kindergarten,None,primary,education,None,,None,International School,None,None,None,French,3.1790657,101.653807
Sekolah Menengah Kebangsaan Raja Abdullah,Secondary,['SM Kebangsaan'],secondary,education,None,,None,Public School,None,None,['SM Kebangsaan'],None,3.20253,101.667
Sekolah Jenis Kebangsaan (Cina) Desa Jaya,Primary,['Jenis Kebangsaan (C)'],primary,education,None,,None,Public School,None,None,['Jenis Kebangsaan (C)'],None,3.216628,101.625497
Sekolah Jenis Kebangsaan (Cina) Jinjang Tengah 1,Primary,['Jenis Kebangsaan (C)'],primary,education,None,,None,Public School,None,None,['Jenis Kebangsaan (C)'],None,3.215125,101.66318000000001
Sekolah Menengah Kebangsaan Jinjang,Secondary,['SM Kebangsaan'],secondary,education,None,,None,Public School,None,None,['SM Kebangsaan'],None,3.22255,101.655
Sekolah Jenis Kebangsaan (Cina) Jinjang Tengah 2,Primary,['Jenis Kebangsaan (C)'],primary,education,None,,None,Public School,None,None,['Jenis Kebangsaan (C)'],None,3.2161,101.663088
Sekolah Menengah Kebangsaan Kepong,Secondary,['SM Kebangsaan'],secondary,education,None,,None,Public School,None,None,['SM Kebangsaan'],None,3.225578,101.63539200000001
Montessori Kids Academy,Preschool,None,preschool,education,None,,None,Preschool,None,None,None,Montessori,3.195385,101.616422
Parkcity Medical Centre,Hospital,None,hospital,healthcare,None,,None,Private,None,None,None,None,3.1894857000000005,101.63829009999999
Klinik Pakar Wanita Kepong Dan Pusat Bersalin,Hospital,None,hospital,healthcare,None,,None,Private,None,None,None,None,3.2131060000000002,101.64611020000001
Klinik Kesihatan Jinjang ,Clinic,None,clinic,healthcare,None,,None,Government,Jinjang Utara,Kuala Lumpur,None,None,3.219822,101.654214
Kepong,KTM Komuter,None,ktm komuter,transportation,KTM Port Klang Line,,1995,None,None,None,None,None,3.2025,101.63722220000001
Kepong Baru,MRT,None,mrt,transportation,MRT Sungai Buloh-Serdang-Putrajaya Line,,2022,None,None,None,None,None,3.211774,101.647816
Metro Prima,MRT,None,mrt,transportation,MRT Sungai Buloh-Serdang-Putrajaya Line,,2022,None,None,None,None,None,3.2145669999999997,101.64065699999999
United Point,KTM Komuter,None,ktm komuter,transportation,KTM Port Klang Line,,2019,None,None,None,None,None,3.1916919999999998,101.655263
Jinjang,MRT,None,mrt,transportation,MRT Sungai Buloh-Serdang-Putrajaya Line,,2022,None,None,None,None,None,3.209457,101.65561600000001
Kepong Sentral,MRT,None,mrt,transportation,MRT Sungai Buloh-Serdang-Putrajaya Line,,2022,None,None,None,None,None,3.2079459999999997,101.628578
Kepong Sentral,KTM Komuter,None,ktm komuter,transportation,KTM Port Klang Line,,1995,None,None,None,None,None,3.2086111,101.6280556
Sri Damansara East,MRT,None,mrt,transportation,MRT Sungai Buloh-Serdang-Putrajaya Line,,2022,None,None,None,None,None,3.198734,101.621178
Sri Delima,MRT,None,mrt,transportation,MRT Sungai Buloh-Serdang-Putrajaya Line,,2022,None,None,None,None,None,3.207584,101.665178
Segambut,KTM Komuter,None,ktm komuter,transportation,KTM Port Klang Line,,1995,None,None,None,None,None,3.1863889,101.6638889
Sekolah Menengah Kebangsaan Bandar Tun Razak,Secondary,['SM Kebangsaan'],secondary,education,None,,None,Public School,None,None,['SM Kebangsaan'],None,3.09148,101.72399999999999
Sekolah Menengah Integrasi Sains Tahfiz (Smista) Maiwp,Secondary,['SM agama'],secondary,education,None,,None,Public School,None,None,['SM agama'],None,3.0916189999999997,101.718231
Sekolah Kebangsaan Bandar Tun Razak 2,Primary,['Kebangsaan'],primary,education,None,,None,Public School,None,None,['Kebangsaan'],None,3.09157,101.725
Sekolah Kebangsaan Bandar Tun Razak 1,Primary,['Kebangsaan'],primary,education,None,,None,Public School,None,None,['Kebangsaan'],None,3.09163,101.725
Sekolah Jenis Kebangsaan (Cina) Imbi,Primary,['Jenis Kebangsaan (C)'],primary,education,None,,None,Public School,None,None,['Jenis Kebangsaan (C)'],None,3.08873,101.730283
Sekolah Menengah Kebangsaan Seri Mulia,Secondary,['SM Kebangsaan'],secondary,education,None,,None,Public School,None,None,['SM Kebangsaan'],None,3.093455,101.71395600000001
Sekolah Menengah Kebangsaan Seri Mutiara,Secondary,['SM Kebangsaan'],secondary,education,None,,None,Public School,None,None,['SM Kebangsaan'],None,3.0886099999999996,101.73100000000001
Sekolah Menengah Kebangsaan Desa Petaling,Secondary,['SM Kebangsaan'],secondary,education,None,,None,Public School,None,None,['SM Kebangsaan'],None,3.081886175,101.71218590000001
Sekolah Kebangsaan Taman Midah 2,Primary,['Kebangsaan'],primary,education,None,,None,Public School,None,None,['Kebangsaan'],None,3.09583,101.728
Sekolah Kebangsaan Taman Midah,Primary,['Kebangsaan'],primary,education,None,,None,Public School,None,None,['Kebangsaan'],None,3.0954,101.73
Sma Majlis Agama Islam Wilayah Persekutuan,Secondary,['SM agama'],cluster,education,None,,None,Public School,None,None,['SM agama'],None,3.094785,101.711802
Sekolah Kebangsaan Desa Petaling,Primary,['Kebangsaan'],primary,education,None,,None,Public School,None,None,['Kebangsaan'],None,3.08338,101.709
Sekolah Kebangsaan Bandar Tasik Selatan,Primary,['Kebangsaan'],primary,education,None,,None,Public School,None,None,['Kebangsaan'],None,3.0739799999999997,101.72
Sekolah Menengah Kebangsaan Seri Tasik,Secondary,['SM Kebangsaan'],secondary,education,None,,None,Public School,None,None,['SM Kebangsaan'],None,3.097235,101.711554
UCSI University Malaysia,Tertiary,None,tertiary,education,None,,None,Private University College,None,None,None,None,3.0796189999999997,101.733266
Sekolah Kebangsaan Seri Tasik,Primary,['Kebangsaan'],primary,education,None,,None,Public School,None,None,['Kebangsaan'],None,3.096984,101.710667
Sekolah Menengah Kebangsaan Bandar Tasik Selatan,Secondary,['SM Kebangsaan'],secondary,education,None,,None,Public School,None,None,['SM Kebangsaan'],None,3.072738357,101.7191987
Brainy Bunch - Bandar Sri Permaisuri,Elementary High Kindergarten,None,elementary,education,None,,None,Preschool,None,None,None,Montessori,3.0988797999999997,101.7122545
Sekolah Jenis Kebangsaan (Cina) Taman Connaught,Primary,['Jenis Kebangsaan (C)'],primary,education,None,,None,Public School,None,None,['Jenis Kebangsaan (C)'],None,3.083973,101.735862
Sekolah Menengah Kebangsaan Taman Connaught,Secondary,['SM Kebangsaan'],secondary,education,None,,None,Public School,None,None,['SM Kebangsaan'],None,3.08352,101.736
Smt Cheras,Secondary,['SM Teknik'],cluster,education,None,,None,Public School,None,None,['SM Teknik'],None,3.10325,101.72200000000001
Sekolah Menengah Sains Selangor,Secondary,['SM Berasrama Penuh'],secondary,education,None,,None,Public School,None,None,['SM Berasrama Penuh'],None,3.10323,101.72
Sekolah Kebangsaan Seri Permaisuri,Primary,['Kebangsaan'],primary,education,None,,None,Public School,None,None,['Kebangsaan'],None,3.104561,101.716918
Sekolah Kebangsaan Desa Tasik,Primary,['Kebangsaan'],primary,education,None,,None,Public School,None,None,['Kebangsaan'],None,3.07115,101.713
Sekolah Menengah Kebangsaan Orkid Desa,Secondary,['SM Kebangsaan'],secondary,education,None,,None,Public School,None,None,['SM Kebangsaan'],None,3.077156,101.736661
Sekolah Menengah Sains Alam Shah,Secondary,['SM Berasrama Penuh'],secondary,education,None,,None,Public School,None,None,['SM Berasrama Penuh'],None,3.1056,101.72399999999999
Sekolah Jenis Kebangsaan (Cina) Kwong Hon,Primary,['Jenis Kebangsaan (C)'],primary,education,None,,None,Public School,None,None,['Jenis Kebangsaan (C)'],None,3.0676240000000004,101.716571
Sekolah Menengah Kebangsaan Seri Permaisuri,Secondary,['SM Kebangsaan'],secondary,education,None,,None,Public School,None,None,['SM Kebangsaan'],None,3.107298,101.717493
Sekolah Kebangsaan Sg Besi,Primary,['Kebangsaan'],primary,education,None,,None,Public School,None,None,['Kebangsaan'],None,3.06717,101.71600000000001
Al-Madinah International University,Tertiary,None,tertiary,education,None,,None,Private University,None,None,None,None,3.083603,101.700451
Sekolah Jenis Kebangsaan (Tamil) Sg Besi,Primary,['Jenis Kebangsaan (T)'],primary,education,None,,None,Public School,None,None,['Jenis Kebangsaan (T)'],None,3.06662708,101.71475670000001
Sekolah Menengah Kebangsaan Sungai Besi,Secondary,['SM Kebangsaan'],secondary,education,None,,None,Public School,None,None,['SM Kebangsaan'],None,3.0665299999999998,101.715
Sekolah Jenis Kebangsaan (Cina) Salak South,Primary,['Jenis Kebangsaan (C)'],primary,education,None,,None,Public School,None,None,['Jenis Kebangsaan (C)'],None,3.086843,101.699238
Sekolah Menengah Kebangsaan Cheras,Secondary,['SM Kebangsaan'],secondary,education,None,,None,Public School,None,None,['SM Kebangsaan'],None,3.10927,101.727
COSMOTOTS iqd - Cheras,Preschool,None,preschool,education,None,,None,Preschool,None,None,None,Local Curriculum,3.0735454,101.7394936
A Star Kids - Taman Len Seng,Preschool,None,preschool,education,None,,None,Preschool,None,None,None,Montessori,3.1015277,101.7403855
Sekolah Kebangsaan Taman Segar,Primary,['Kebangsaan'],primary,education,None,,None,Public School,None,None,['Kebangsaan'],None,3.09058,101.745
Sekolah Jenis Kebangsaan (Cina) Tai Thung,Primary,['Jenis Kebangsaan (C)'],primary,education,None,,None,Public School,None,None,['Jenis Kebangsaan (C)'],None,3.106086,101.705617
Sekolah Kebangsaan Salak South,Primary,['Kebangsaan'],primary,education,None,,None,Public School,None,None,['Kebangsaan'],None,3.0809083389999996,101.6972446
Universiti Pertahanan Nasional Malaysia (Upnm),Tertiary,['Public University'],tertiary,education,None,,None,Public University,None,None,['Public University'],None,3.0628490000000004,101.715436
Sekolah Kebangsaan Pengkalan Tentera Darat,Primary,['Kebangsaan'],primary,education,None,,None,Public School,None,None,['Kebangsaan'],None,3.06232,101.71700000000001
Sekolah Kebangsaan Seri Anggerik,Primary,['Kebangsaan'],primary,education,None,,None,Public School,None,None,['Kebangsaan'],None,3.07488,101.745
Klinik Kesihatan Bandar Tun Razak ,Clinic,None,clinic,healthcare,None,,None,Government,Kuala Lumpur,Kuala Lumpur,None,None,3.087158,101.720489
Pusat Pakar Ukm,Hospital,None,hospital,healthcare,None,,None,Private,None,None,None,None,3.09822,101.726
Pantai Hospital Cheras,Hospital,None,hospital,healthcare,None,,None,Private,None,None,None,None,3.1025897000000002,101.74069909999999
Klinik Kesihatan Sungai Besi,Clinic,None,clinic,healthcare,None,,None,Government,Sungai Besi,Kuala Lumpur,None,None,3.063225,101.71043900000001
Bandar Tun Razak,LRT,None,lrt,transportation,LRT Sri Petaling Line,,1998,None,None,None,None,None,3.0896689999999998,101.7125175
Bandar Tasik Selatan,LRT,None,lrt,transportation,LRT Sri Petaling Line,,1998,None,None,None,None,None,3.0760769,101.7113663
Bandar Tasik Selatan,ERL,None,erl,transportation,ERL KLIA Transit Line,,2002,None,None,None,None,None,3.0760769,101.7113663
Bandar Tasik Selatan,KTM Komuter,None,ktm komuter,transportation,KTM Seremban Line,,1995,None,None,None,None,None,3.0760769,101.7113663
Salak Selatan,KTM Komuter,None,ktm komuter,transportation,KTM Seremban Line,,1995,None,None,None,None,None,3.0980556,101.70527779999999
Taman Mutiara,MRT,None,mrt,transportation,MRT Sungai Buloh-Kajang Line,,2017,None,None,None,None,None,3.091327,101.74029499999999
Taman Midah,MRT,None,mrt,transportation,MRT Sungai Buloh-Kajang Line,,2017,None,None,None,None,None,3.104317,101.73214
Salak Selatan,LRT,None,lrt,transportation,LRT Sri Petaling Line,,1998,None,None,None,None,None,3.1022403,101.70638459999999
Taman Naga Emas,MRT,None,mrt,transportation,MRT Sungai Buloh-Serdang-Putrajaya Line,,2022,None,None,None,None,None,3.07792,101.699439
Taman Connaught,MRT,None,mrt,transportation,MRT Sungai Buloh-Kajang Line,,2017,None,None,None,None,None,3.079173,101.74514
Sungai Besi,LRT,None,lrt,transportation,LRT Sri Petaling Line,,1998,None,None,None,None,None,3.064711,101.708523
Sungai Besi,MRT,None,mrt,transportation,MRT Sungai Buloh-Serdang-Putrajaya Line,,2022,None,None,None,None,None,3.064069,101.708371
Taman Pertama,MRT,None,mrt,transportation,MRT Sungai Buloh-Kajang Line,,2017,None,None,None,None,None,3.11262,101.729256
Sekolah Jenis Kebangsaan (Cina) Khai Chee,Primary,['Jenis Kebangsaan (C)'],primary,education,None,,None,Public School,None,None,['Jenis Kebangsaan (C)'],None,3.18574,101.67
Sekolah Menengah Kebangsaan Segambut,Secondary,['SM Kebangsaan'],secondary,education,None,,None,Public School,None,None,['SM Kebangsaan'],None,3.1870700000000003,101.66799999999999
Sekolah Kebangsaan Segambut,Primary,['Kebangsaan'],primary,education,None,,None,Public School,None,None,['Kebangsaan'],None,3.1876,101.66799999999999
Sekolah Menengah Kebangsaan (P) Jalan Ipoh,Secondary,['SM Kebangsaan'],secondary,education,None,,None,Public School,None,None,['SM Kebangsaan'],None,3.18715,101.681
Sekolah Menengah Kebangsaan Kiaramas,Secondary,['SM Kebangsaan'],secondary,education,None,,None,Public School,None,None,['SM Kebangsaan'],None,3.17865,101.663
Young Aces Technical College,Tertiary,None,tertiary,education,None,,None,Private College,None,None,None,None,3.1897849999999996,101.67892900000001
Sekolah Kebangsaan Kiaramas,Primary,['Kebangsaan'],primary,education,None,,None,Public School,None,None,['Kebangsaan'],None,3.17662,101.663
Trinity Kids - Solaris Dutamas,Primary Preschool,None,primary,education,None,,None,Preschool,None,None,None,International,3.1708952,101.666093
The children's house - Mont Kiara,Preschool,None,preschool,education,None,,None,Preschool,None,None,None,Montessori,3.1735011,101.6626137
Sekolah Jenis Kebangsaan (Cina) Lai Chee,Primary,['Jenis Kebangsaan (C)'],primary,education,None,,None,Public School,None,None,['Jenis Kebangsaan (C)'],None,3.1908529999999997,101.682198
Hibiscus International School,Primary Secondary Early years,None,primary,education,None,,None,International School,None,None,None,British,3.1900275000000002,101.6602254
Sekolah Kebangsaan Sri Dhandayuthapani,Primary,['Kebangsaan'],primary,education,None,,None,Public School,None,None,['Kebangsaan'],None,3.17593,101.68799999999999
Sekolah Kebangsaan Segambut Makmur,Primary,['Kebangsaan'],primary,education,None,,None,Public School,None,None,['Kebangsaan'],None,3.1811,101.65700000000001
Sekolah Jenis Kebangsaan (Tamil) Thamboosamy Pillai,Primary,['Jenis Kebangsaan (T)'],primary,education,None,,None,Public School,None,None,['Jenis Kebangsaan (T)'],None,3.179345,101.68916999999999
Sekolah Kebangsaan Sentul Utama,Primary,['Kebangsaan'],primary,education,None,,None,Public School,None,None,['Kebangsaan'],None,3.17572,101.69
Sekolah Jenis Kebangsaan (Cina) Chi Man,Primary,['Jenis Kebangsaan (C)'],primary,education,None,,None,Public School,None,None,['Jenis Kebangsaan (C)'],None,3.185308,101.690673
Sekolah Menengah Sains Seri Puteri,Secondary,['SM Berasrama Penuh'],secondary,education,None,,None,Public School,None,None,['SM Berasrama Penuh'],None,3.17042,101.68799999999999
Sekolah Menengah Kebangsaan Raja Ali,Secondary,['SM Kebangsaan'],secondary,education,None,,None,Public School,None,None,['SM Kebangsaan'],None,3.199631,101.674625
Sekolah Kebangsaan La Salle (1) Sentul,Primary,['Kebangsaan'],primary,education,None,,None,Public School,None,None,['Kebangsaan'],None,3.1801,101.691742
Sekolah Menengah Kebangsaan Sentul Utama,Secondary,['SM Kebangsaan'],secondary,education,None,,None,Public School,None,None,['SM Kebangsaan'],None,3.1756,101.691
Sekolah Menengah Kebangsaan Convent Sentul,Secondary,['SM Kebangsaan'],secondary,education,None,,None,Public School,None,None,['SM Kebangsaan'],None,3.18662,101.691
Sekolah Menengah Kebangsaan La Salle Sentul,Secondary,['SM Kebangsaan'],secondary,education,None,,None,Public School,None,None,['SM Kebangsaan'],None,3.180112,101.69187600000001
Sekolah Jenis Kebangsaan (Tamil) St. Joseph,Primary,['Jenis Kebangsaan (T)'],primary,education,None,,None,Public School,None,None,['Jenis Kebangsaan (T)'],None,3.186604,101.691351
Lycee Francais de Kuala Lumpur (LFKL),Primary Secondary Kindergarten,None,primary,education,None,,None,International School,None,None,None,French,3.1790657,101.653807
Brainy Bunch -  Segambut (new),Elementary High Kindergarten,None,elementary,education,None,,None,Preschool,None,None,None,Montessori,3.1852185,101.6537584
Sekolah Kebangsaan (2) Batu 4 Jalan Ipoh,Primary,['Kebangsaan'],primary,education,None,,None,Public School,None,None,['Kebangsaan'],None,3.20102,101.67399999999999
Sekolah Kebangsaan (1) Batu 4 Jalan Ipoh,Primary,['Kebangsaan'],primary,education,None,,None,Public School,None,None,['Kebangsaan'],None,3.20103,101.67399999999999
Sekolah Jenis Kebangsaan (Tamil) Sentul,Primary,['Jenis Kebangsaan (T)'],primary,education,None,,None,Public School,None,None,['Jenis Kebangsaan (T)'],None,3.17908,101.693
The children's house - Aman Walk,Preschool,None,preschool,education,None,,None,Preschool,None,None,None,Montessori,3.1722407,101.65481940000001
Sekolah Kebangsaan Sentul 2,Primary,['Kebangsaan'],primary,education,None,,None,Public School,None,None,['Kebangsaan'],None,3.19213,101.69
Sekolah Kebangsaan Taman Seri Sinar,Primary,['Kebangsaan'],primary,education,None,,None,Public School,None,None,['Kebangsaan'],None,3.18827,101.654
Sekolah Jenis Kebangsaan (Cina) Sentul,Primary,['Jenis Kebangsaan (C)'],primary,education,None,,None,Public School,None,None,['Jenis Kebangsaan (C)'],None,3.179826,101.693327
Sekolah Menengah Kebangsaan Segambut Jaya,Secondary,['SM Kebangsaan'],secondary,education,None,,None,Public School,None,None,['SM Kebangsaan'],None,3.18552,101.65299999999999
Sekolah Jenis Kebangsaan (Tamil) Segambut,Primary,['Jenis Kebangsaan (T)'],primary,education,None,,None,Public School,None,None,['Jenis Kebangsaan (T)'],None,3.195592,101.658441
Sekolah Kebangsaan Sentul 1,Primary,['Kebangsaan'],primary,education,None,,None,Public School,None,None,['Kebangsaan'],None,3.19275,101.69
Sekolah Menengah Kebangsaan Maxwell,Secondary,['SM Kebangsaan'],secondary,education,None,,None,Public School,None,None,['SM Kebangsaan'],None,3.171138482,101.69134759999999
Sekolah Menengah Kebangsaan (L) Methodist Sentul,Secondary,['SM Kebangsaan'],secondary,education,None,,None,Public School,None,None,['SM Kebangsaan'],None,3.17923,101.694
Mont'Kiara International School (MKIS),Elementary Middle High Kindergarten,None,elementary,education,None,,None,International School,None,None,None,International Baccalaureate (IB) American,3.1737515,101.65315859999998
Sekolah Kebangsaan (L) Methodist Sentul,Primary,['Kebangsaan'],primary,education,None,,None,Public School,None,None,['Kebangsaan'],None,3.1786,101.694
Sekolah Kebangsaan Convent Sentul 1,Primary,['Kebangsaan'],primary,education,None,,None,Public School,None,None,['Kebangsaan'],None,3.18527,101.694
Sekolah Kebangsaan Kg Batu,Primary,['Kebangsaan'],primary,education,None,,None,Public School,None,None,['Kebangsaan'],None,3.20208,101.677
Sekolah Kebangsaan Convent Sentul 2,Primary,['Kebangsaan'],primary,education,None,,None,Public School,None,None,['Kebangsaan'],None,3.1855,101.694
AIMST University,Tertiary,None,tertiary,education,None,,None,Private University,None,None,None,None,3.170858,101.69225300000001
Wesley Methodist School,Secondary,None,secondary,education,None,,None,Private School,None,None,None,Local Curriculum,3.1796,101.6948
Wesley Methodist International School Kuala Lumpur,Primary Secondary A-Levels,None,primary,education,None,,None,International School,None,None,None,British,3.1795791,101.69482690000001
Spectrum International Islamic School (SIIS),Preschool Primary Secondary,None,preschool,education,None,,None,None,None,None,None,Cambridge,3.1661286,101.6894473
Sekolah Menengah Kebangsaan Raja Abdullah,Secondary,['SM Kebangsaan'],secondary,education,None,,None,Public School,None,None,['SM Kebangsaan'],None,3.20253,101.667
Victoria International College,Tertiary,None,tertiary,education,None,,None,Private College,None,None,None,None,3.203773,101.675325
Sekolah Kebangsaan Seri Delima,Primary,['Kebangsaan'],primary,education,None,,None,Public School,None,None,['Kebangsaan'],None,3.2039299999999997,101.67200000000001
MFA - Malaysian Flying Academy,Tertiary,None,tertiary,education,None,,None,Private College,None,None,None,None,3.159607,101.664939
Sekolah Jenis Kebangsaan (Cina) Sentul Pasar,Primary,['Jenis Kebangsaan (C)'],primary,education,None,,None,Public School,None,None,['Jenis Kebangsaan (C)'],None,3.1958889999999998,101.691213
Sekolah Jenis Kebangsaan (Cina) Mun Choong,Primary,['Jenis Kebangsaan (C)'],primary,education,None,,None,Public School,None,None,['Jenis Kebangsaan (C)'],None,3.2057,101.67399999999999
Sekolah Jenis Kebangsaan (Cina) Jinjang Selatan,Primary,['Jenis Kebangsaan (C)'],primary,education,None,,None,Public School,None,None,['Jenis Kebangsaan (C)'],None,3.204414,101.66471700000001
Sekolah Kebangsaan Bandar Baru Sentul,Primary,['Kebangsaan'],primary,education,None,,None,Public School,None,None,['Kebangsaan'],None,3.1837,101.698
Sekolah Menengah Kebangsaan Dato' Ibrahim Yaacob,Secondary,['SM Kebangsaan'],secondary,education,None,,None,Public School,None,None,['SM Kebangsaan'],None,3.206813,101.672779
Sekolah Kebangsaan Seri Perak,Primary,['Kebangsaan'],primary,education,None,,None,Public School,None,None,['Kebangsaan'],None,3.1818299999999997,101.699
Sekolah Menengah Kebangsaan Bandar Baru Sentul,Secondary,['SM Kebangsaan'],secondary,education,None,,None,Public School,None,None,['SM Kebangsaan'],None,3.18398,101.699
ICOM - International College Of Music,Tertiary,None,tertiary,education,None,,None,Private College,None,None,None,None,3.1799150000000003,101.699726
Klinik Kesihatan Sentul,Clinic,None,clinic,healthcare,None,,None,Government,Sentul,Kuala Lumpur,None,None,3.18367,101.69134
Lourdes Medical Centre,Hospital,None,hospital,healthcare,None,,None,Private,None,None,None,None,3.1729713999999998,101.6911746
Klinik Kesihatan Batu,Clinic,None,clinic,healthcare,None,,None,Government,Kuala Lumpur,Kuala Lumpur,None,None,3.200758,101.676703
Sentul Medical Centre,Hospital,None,hospital,healthcare,None,,None,Private,None,None,None,None,3.1740535,101.69270159999999
Hospital Aman (M) Sdn. Bhd.,Hospital,None,hospital,healthcare,None,,None,Private,None,None,None,None,3.17163,101.6931892
Dato' Harnam E.N.T. Specialist Hospital Sdn. Bhd.,Hospital,None,hospital,healthcare,None,,None,Private,None,None,None,None,3.1707400000000003,101.69344009999999
Chaudhury Medic Centre,Hospital,None,hospital,healthcare,None,,None,Private,None,None,None,None,3.1757,101.69676
Damai Service Hospital (H.Q.) Sdn. Bhd.,Hospital,None,hospital,healthcare,None,,None,Private,None,None,None,None,3.1701662,101.69507779999999
Hospital Pakar KPJ Tawakkal (KPJ Tawakkal Specialist Hospital),Hospital,None,hospital,healthcare,None,,None,Private,None,None,None,None,3.1769611,101.6986695
KPJ Sentosa KL Specialist Hospital,Hospital,None,hospital,healthcare,None,,None,Private,None,None,None,None,3.1707978999999997,101.6973483
Segambut,KTM Komuter,None,ktm komuter,transportation,KTM Port Klang Line,,1995,None,None,None,None,None,3.1863889,101.6638889
Jalan Ipoh,MRT,None,mrt,transportation,MRT Sungai Buloh-Serdang-Putrajaya Line,,2022,None,None,None,None,None,3.189494,101.680878
Sentul West,MRT,None,mrt,transportation,MRT Sungai Buloh-Serdang-Putrajaya Line,,2022,None,None,None,None,None,3.178682,101.685436
Sentul,KTM Komuter,None,ktm komuter,transportation,KTM Seremban Line,,1995,None,None,None,None,None,3.182625,101.688819
Kentonmen,MRT,None,mrt,transportation,MRT Sungai Buloh-Serdang-Putrajaya Line,,2022,None,None,None,None,None,3.195754,101.67961
Batu Kentonmen,KTM Komuter,None,ktm komuter,transportation,KTM Seremban Line,,1995,None,None,None,None,None,3.1982459999999997,101.681163
United Point,KTM Komuter,None,ktm komuter,transportation,KTM Port Klang Line,,2019,None,None,None,None,None,3.1916919999999998,101.655263
Sentul,LRT,None,lrt,transportation,LRT Ampang Line | LRT Sri Petaling Line,,1998,None,None,None,None,None,3.1784675,101.6955325
Sentul Timur,LRT,None,lrt,transportation,LRT Ampang Line | LRT Sri Petaling Line,,1998,None,None,None,None,None,3.1858559,101.6953546
Titiwangsa,LRT,None,lrt,transportation,LRT Ampang Line | LRT Sri Petaling Line,,1998,None,None,None,None,None,3.1735078999999997,101.69531009999999
Putra,KTM Komuter,None,ktm komuter,transportation,KTM Seremban Line | KTM Port Klang Line,,1995,None,None,None,None,None,3.165363,101.69093199999999
Taman Batu,KTM Komuter,None,ktm komuter,transportation,KTM Seremban Line,,1995,None,None,None,None,None,3.2049291,101.67351359999999
Titiwangsa,MRT,None,mrt,transportation,MRT Sungai Buloh-Serdang-Putrajaya Line,,2022,None,None,None,None,None,3.174771,101.696166
Titiwangsa,Monorail,None,monorail,transportation,KL Monorail,,2003,None,None,None,None,None,3.173192,101.6960217
Kampung Batu,MRT,None,mrt,transportation,MRT Sungai Buloh-Serdang-Putrajaya Line,,2022,None,None,None,None,None,3.2058259999999996,101.67543
PWTC,LRT,None,lrt,transportation,LRT Ampang Line | LRT Sri Petaling Line,,1998,None,None,None,None,None,3.1663354999999997,101.6935757
Sekolah Menengah Kebangsaan Taman Tun Dr. Ismail,Secondary,['SM Kebangsaan'],secondary,education,None,,None,Public School,None,None,['SM Kebangsaan'],None,3.14675,101.624
Sekolah Kebangsaan Taman Tun Dr Ismail 1,Primary,['Kebangsaan'],primary,education,None,,None,Public School,None,None,['Kebangsaan'],None,3.15332,101.62
The children's house - TTDI,Preschool,None,preschool,education,None,,None,Preschool,None,None,None,Montessori,3.1435703,101.6290248
Sekolah Kebangsaan Taman Tun Dr. Ismail (2),Primary,['Kebangsaan'],primary,education,None,,None,Public School,None,None,['Kebangsaan'],None,3.1456,101.631
Smart Reader,Preschool,None,preschool,education,None,,None,Preschool,None,None,None,Malaysian,3.1416401,101.626529
Mantissa College,Tertiary,None,tertiary,education,None,,None,Private College,None,None,None,None,3.141232,101.628341
Sekolah Kebangsaan Damansara Utama,Primary,['Kebangsaan'],primary,education,None,,None,Public School,None,None,['Kebangsaan'],None,3.140003,101.622771
Sekolah Menengah Kebangsaan Bandar Utama,Secondary,['SM Kebangsaan'],secondary,education,None,,None,Public School,None,None,['SM Kebangsaan'],None,3.14299,101.61425
Sekolah Menengah Kebangsaan Damansara Utama,Secondary,['SM Kebangsaan'],cluster,education,None,,None,Public School,None,None,['SM Kebangsaan'],None,3.136349,101.62550300000001
Brainy Bunch  - TTDI Kuala Lumpur,Elementary High Kindergarten,None,elementary,education,None,,None,Preschool,None,None,None,Montessori,3.1372969,101.6306966
Sekolah Kebangsaan Bandar Utama Damansara 2,Primary,['Kebangsaan'],primary,education,None,,None,Public School,None,None,['Kebangsaan'],None,3.1410299999999998,101.614246
Sekolah Kebangsaan Bandar Utama Damansara (4),Primary,['Kebangsaan'],primary,education,None,,None,Public School,None,None,['Kebangsaan'],None,3.151993,101.61121700000001
Sekolah Jenis Kebangsaan (Cina) Puay Chai 2,Primary,['Jenis Kebangsaan (C)'],cluster,education,None,,None,Public School,None,None,['Jenis Kebangsaan (C)'],None,3.146541,101.610986
Sekolah Menengah Kebangsaan Bandar Utama Damansara (4),Secondary,['SM Kebangsaan'],secondary,education,None,,None,Public School,None,None,['SM Kebangsaan'],None,3.154266,101.61115699999999
UCSI College,Tertiary,None,tertiary,education,None,,None,Private College,None,None,None,None,3.133354,101.624172
British Council - The Curve,Tertiary,None,tertiary,education,None,,None,Private College,None,None,None,None,3.158156,101.611419
COSMOTOTS iqd - Damansara Utama,Preschool,None,preschool,education,None,,None,Preschool,None,None,None,Local Curriculum,3.132906,101.623485
Sekolah Kebangsaan Sg Penchala,Primary,['Kebangsaan'],primary,education,None,,None,Public School,None,None,['Kebangsaan'],None,3.165438,101.625782
Sekolah Menengah Kebangsaan Bandar Utama Damansara (2),Secondary,['SM Kebangsaan'],secondary,education,None,,None,Public School,None,None,['SM Kebangsaan'],None,3.139251,101.61086
Sekolah Jenis Kebangsaan (Cina) Chung Hwa Damansara,Primary,['Jenis Kebangsaan (C)'],primary,education,None,,None,Public School,None,None,['Jenis Kebangsaan (C)'],None,3.130676,101.63124499999999
Sekolah Menengah Kebangsaan Damansara Jaya,Secondary,['SM Kebangsaan'],cluster,education,None,,None,Public School,None,None,['SM Kebangsaan'],None,3.131193,101.61608299999999
Sekolah Menengah Kebangsaan Bandar Utama Damansara 3,Secondary,['SM Kebangsaan'],cluster,education,None,,None,Public School,None,None,['SM Kebangsaan'],None,3.1400639999999997,101.606583
First City University College,Tertiary,None,tertiary,education,None,,None,Private University College,None,None,None,None,3.1380529999999998,101.60706400000001
Joykids International Preschool,Preschool,None,preschool,education,None,,None,Preschool,None,None,None,British,3.151447,101.6028798
British International School Kuala Lumpur,Primary Secondary Early years,None,primary,education,None,,None,International School,None,None,None,British,3.1362464,101.6068523
Sekolah Menengah Kebangsaan Seri Hartamas,Secondary,['SM Kebangsaan'],secondary,education,None,,None,Public School,None,None,['SM Kebangsaan'],None,3.15748,101.647
Sekolah Kebangsaan Bandar Utama Damansara,Primary,['Kebangsaan'],primary,education,None,,None,Public School,None,None,['Kebangsaan'],None,3.131949,101.608122
Integrated Islamic School Kota Damansara,Primary Secondary Preschool,None,primary,education,None,,None,International School,None,None,None,British,3.1525477000000004,101.6004628
Garden International School Early Years Centre,Preschool,None,preschool,education,None,,None,Preschool,None,None,None,British,3.158849,101.64733299999999
Ecole De Patisserie,Tertiary,None,tertiary,education,None,,None,Private College,None,None,None,None,3.165037,101.6058
Sekolah Kebangsaan Taman Sea,Primary,['Kebangsaan'],primary,education,None,,None,Public School,None,None,['Kebangsaan'],None,3.124168,101.626063
Sekolah Jenis Kebangsaan (Tamil) Ldg Effingham,Primary,['Jenis Kebangsaan (T)'],primary,education,None,,None,Public School,None,None,['Jenis Kebangsaan (T)'],None,3.132672,101.603873
Trinity Kids - Mont Kiara,Preschool,None,preschool,education,None,,None,Preschool,None,None,None,International,3.1674535,101.644195
Sekolah Kebangsaan Damansara Jaya (2),Primary,['Kebangsaan'],primary,education,None,,None,Public School,None,None,['Kebangsaan'],None,3.123527,101.616475
Pusat Pakar Ortopedik Quill Orthopedic Specialist Centre,Hospital,None,hospital,healthcare,None,,None,Private,None,None,None,None,3.1525534,101.6203102
Hospital Pakar Damansara (Damansara Specialist Hospital),Hospital,None,hospital,healthcare,None,,None,Private,None,None,None,None,3.1373783,101.62754190000001
Klinik Desa Damansara,Clinic,None,clinic,healthcare,None,,None,Government,Petaling Jaya,Petaling,None,None,3.1289,101.63158
Bandar Utama,MRT,None,mrt,transportation,MRT Sungai Buloh-Kajang Line,,2017,None,None,None,None,None,3.1466540000000003,101.618652
Bandar Utama,LRT,None,lrt,transportation,LRT Bandar Utama-Klang Line,,2020,None,None,None,None,None,3.144215,101.6193308
Taman Tun Dr Ismail (Ttdi),MRT,None,mrt,transportation,MRT Sungai Buloh-Kajang Line,,2017,None,None,None,None,None,3.135971,101.630782
Kayu Ara @ Damansara Utama,LRT,None,lrt,transportation,LRT Bandar Utama-Klang Line,,2020,None,None,None,None,None,3.135215,101.616997
Mutiara Damansara,MRT,None,mrt,transportation,MRT Sungai Buloh-Kajang Line,,2017,None,None,None,None,None,3.155134,101.60884899999999
Bu11 @ Tropicana,LRT,None,lrt,transportation,LRT Bandar Utama-Klang Line,,2020,None,None,None,None,None,3.133365,101.606185
Phileo Damansara,MRT,None,mrt,transportation,MRT Sungai Buloh-Kajang Line,,2017,None,None,None,None,None,3.12915,101.64285799999999
Sekolah Kebangsaan Menjalara,Primary,['Kebangsaan'],primary,education,None,,None,Public School,None,None,['Kebangsaan'],None,3.193969,101.637578
Sekolah Menengah Kebangsaan Menjalara,Secondary,['SM Kebangsaan'],secondary,education,None,,None,Public School,None,None,['SM Kebangsaan'],None,3.193501,101.636275
Kolej Tingkatan Enam Desa Mahkota,Secondary,['Kolej'],secondary,education,None,,None,Public School,None,None,['Kolej'],None,3.188694,101.639831
Sekolah Jenis Kebangsaan (Cina) Kepong 3,Primary,['Jenis Kebangsaan (C)'],primary,education,None,,None,Public School,None,None,['Jenis Kebangsaan (C)'],None,3.18853,101.640709
The International School @ Parkcity,Primary Secondary Preschool,None,primary,education,None,,None,International School,None,None,None,British,3.1879,101.6376
Sekolah Menengah Kebangsaan Sinar Bintang,Secondary,['SM Kebangsaan'],secondary,education,None,,None,Public School,None,None,['SM Kebangsaan'],None,3.1886799999999997,101.645
Sekolah Kebangsaan Seri Kepong,Primary,['Kebangsaan'],primary,education,None,,None,Public School,None,None,['Kebangsaan'],None,3.1912700000000003,101.647
Brainy Bunch - Bandar Manjalara (new),Elementary High Kindergarten,None,elementary,education,None,,None,Preschool,None,None,None,Montessori,3.1938767000000006,101.6301282
Sekolah Menengah Kebangsaan Kepong Baru,Secondary,['SM Kebangsaan'],secondary,education,None,,None,Public School,None,None,['SM Kebangsaan'],None,3.1977700000000002,101.647
Sekolah Kebangsaan Taman Kepong,Primary,['Kebangsaan'],primary,education,None,,None,Public School,None,None,['Kebangsaan'],None,3.19895,101.648
Sekolah Menengah Kebangsaan Taman Bukit Maluri,Secondary,['SM Kebangsaan'],secondary,education,None,,None,Public School,None,None,['SM Kebangsaan'],None,3.20245,101.634
Sekolah Jenis Kebangsaan (Tamil) Ladang Edinburgh,Primary,['Jenis Kebangsaan (T)'],primary,education,None,,None,Public School,None,None,['Jenis Kebangsaan (T)'],None,3.2025799999999998,101.633
Sekolah Kebangsaan Taman Bukit Maluri,Primary,['Kebangsaan'],cluster,education,None,,None,Public School,None,None,['Kebangsaan'],None,3.2037,101.633
Sma Kuala Lumpur,Secondary,['SMK Agama'],secondary,education,None,,None,Public School,None,None,['SMK Agama'],None,3.1973700000000003,101.626
Sekolah Kebangsaan Kepong Baru,Primary,['Kebangsaan'],primary,education,None,,None,Public School,None,None,['Kebangsaan'],None,3.205899,101.645528
Sekolah Menengah Kebangsaan Segambut Jaya,Secondary,['SM Kebangsaan'],secondary,education,None,,None,Public School,None,None,['SM Kebangsaan'],None,3.18552,101.65299999999999
Sekolah Kebangsaan Taman Seri Sinar,Primary,['Kebangsaan'],primary,education,None,,None,Public School,None,None,['Kebangsaan'],None,3.18827,101.654
Brainy Bunch -  Segambut (new),Elementary High Kindergarten,None,elementary,education,None,,None,Preschool,None,None,None,Montessori,3.1852185,101.6537584
Sekolah Jenis Kebangsaan (Tamil) Segambut,Primary,['Jenis Kebangsaan (T)'],primary,education,None,,None,Public School,None,None,['Jenis Kebangsaan (T)'],None,3.195592,101.658441
Lycee Francais de Kuala Lumpur (LFKL),Primary Secondary Kindergarten,None,primary,education,None,,None,International School,None,None,None,French,3.1790657,101.653807
Tzu Chi International School,Primary Secondary A-Levels,None,primary,education,None,,None,International School,None,None,None,Cambridge,3.2095517000000005,101.6495568
Sekolah Kebangsaan Bandar Baru Sri Damansara,Primary,['Kebangsaan'],primary,education,None,,None,Public School,None,None,['Kebangsaan'],None,3.206248,101.62431600000001
Sekolah Kebangsaan Segambut Makmur,Primary,['Kebangsaan'],primary,education,None,,None,Public School,None,None,['Kebangsaan'],None,3.1811,101.65700000000001
Hibiscus International School,Primary Secondary Early years,None,primary,education,None,,None,International School,None,None,None,British,3.1900275000000002,101.6602254
Pintar College,Tertiary,None,tertiary,education,None,,None,Private College,None,None,None,None,3.2146369999999997,101.635976
Montessori Kids Academy,Preschool,None,preschool,education,None,,None,Preschool,None,None,None,Montessori,3.195385,101.616422
Sekolah Jenis Kebangsaan (Cina) Kepong 1,Primary,['Jenis Kebangsaan (C)'],primary,education,None,,None,Public School,None,None,['Jenis Kebangsaan (C)'],None,3.214727,101.634847
Mont'Kiara International School (MKIS),Elementary Middle High Kindergarten,None,elementary,education,None,,None,International School,None,None,None,International Baccalaureate (IB) American,3.1737515,101.65315859999998
Sekolah Kebangsaan Bandar Sri Damansara 3,Primary,['Kebangsaan'],primary,education,None,,None,Public School,None,None,['Kebangsaan'],None,3.187781,101.616104
Sekolah Jenis Kebangsaan (Cina) Kepong 2,Primary,['Jenis Kebangsaan (C)'],primary,education,None,,None,Public School,None,None,['Jenis Kebangsaan (C)'],None,3.215564,101.634744
Brainy Bunch  - Sri Damansara,Elementary High Kindergarten,None,elementary,education,None,,None,Preschool,None,None,None,Montessori,3.187011,101.615323
Trinity Kids - Mont Kiara,Preschool,None,preschool,education,None,,None,Preschool,None,None,None,International,3.1674535,101.644195
The children's house - Aman Walk,Preschool,None,preschool,education,None,,None,Preschool,None,None,None,Montessori,3.1722407,101.65481940000001
Trinity Kids - Summer Suites KL,Primary Preschool,None,primary,education,None,,None,Preschool,None,None,None,International,3.167454,101.646384
Garden International School,Primary Secondary Early years,None,primary,education,None,,None,International School,None,None,None,British,3.16799,101.648877
Parkcity Medical Centre,Hospital,None,hospital,healthcare,None,,None,Private,None,None,None,None,3.1894857000000005,101.63829009999999
Klinik Pakar Wanita Kepong Dan Pusat Bersalin,Hospital,None,hospital,healthcare,None,,None,Private,None,None,None,None,3.2131060000000002,101.64611020000001
Global Doctors Centre,Hospital,None,hospital,healthcare,None,,None,Private,None,None,None,None,3.1683383,101.6488143
Kepong,KTM Komuter,None,ktm komuter,transportation,KTM Port Klang Line,,1995,None,None,None,None,None,3.2025,101.63722220000001
United Point,KTM Komuter,None,ktm komuter,transportation,KTM Port Klang Line,,2019,None,None,None,None,None,3.1916919999999998,101.655263
Kepong Sentral,MRT,None,mrt,transportation,MRT Sungai Buloh-Serdang-Putrajaya Line,,2022,None,None,None,None,None,3.2079459999999997,101.628578
Sri Damansara East,MRT,None,mrt,transportation,MRT Sungai Buloh-Serdang-Putrajaya Line,,2022,None,None,None,None,None,3.198734,101.621178
Kepong Sentral,KTM Komuter,None,ktm komuter,transportation,KTM Port Klang Line,,1995,None,None,None,None,None,3.2086111,101.6280556
Kepong Baru,MRT,None,mrt,transportation,MRT Sungai Buloh-Serdang-Putrajaya Line,,2022,None,None,None,None,None,3.211774,101.647816
Metro Prima,MRT,None,mrt,transportation,MRT Sungai Buloh-Serdang-Putrajaya Line,,2022,None,None,None,None,None,3.2145669999999997,101.64065699999999
Jinjang,MRT,None,mrt,transportation,MRT Sungai Buloh-Serdang-Putrajaya Line,,2022,None,None,None,None,None,3.209457,101.65561600000001
Segambut,KTM Komuter,None,ktm komuter,transportation,KTM Port Klang Line,,1995,None,None,None,None,None,3.1863889,101.6638889
KTAC - Cybernetics International College of Technology,Tertiary,None,tertiary,education,None,,None,Private College,None,None,None,None,3.1307009999999997,101.73423100000001
YPC International College,Tertiary,None,tertiary,education,None,,None,Private College,None,None,None,None,3.129464,101.734576
Kolej Universiti Poly-Tech MARA (KUPTM),Tertiary,None,tertiary,education,None,,None,Private University College,None,None,None,None,3.128428,101.738362
Sekolah Menengah Kebangsaan Pandan Jaya,Secondary,['SM Kebangsaan'],secondary,education,None,,None,Public School,None,None,['SM Kebangsaan'],None,3.13656,101.737886
Taylor's International School,Primary Secondary Early years,None,primary,education,None,,None,International School,None,None,None,British,3.1373,101.7314
Taylor's International School,Primary Secondary Early years,None,primary,education,None,,None,International School,None,None,None,British,3.1373,101.7314
Sekolah Kebangsaan St. Gabriel,Primary,['Kebangsaan'],primary,education,None,,None,Public School,None,None,['Kebangsaan'],None,3.1361,101.73
Sekolah Menengah Kebangsaan St. Gabriel,Secondary,['SM Kebangsaan'],secondary,education,None,,None,Public School,None,None,['SM Kebangsaan'],None,3.135732421,101.7294637
Sekolah Kebangsaan Pandan Jaya,Primary,['Kebangsaan'],primary,education,None,,None,Public School,None,None,['Kebangsaan'],None,3.137911,101.738342
Sekolah Kebangsaan Cochrane,Primary,['Kebangsaan'],primary,education,None,,None,Public School,None,None,['Kebangsaan'],None,3.13055,101.728
Sekolah Jenis Kebangsaan (Cina) Tsun Jin,Primary,['Jenis Kebangsaan (C)'],primary,education,None,,None,Public School,None,None,['Jenis Kebangsaan (C)'],None,3.137284,101.730255
Sekolah Kebangsaan Puteri Pandan 1,Primary,['Kebangsaan'],primary,education,None,,None,Public School,None,None,['Kebangsaan'],None,3.1367,101.729
Sekolah Kebangsaan Puteri Pandan 2,Primary,['Kebangsaan'],primary,education,None,,None,Public School,None,None,['Kebangsaan'],None,3.1363540000000003,101.728613
Sekolah Kebangsaan Cochrane Perkasa,Primary,['Kebangsaan'],primary,education,None,,None,Public School,None,None,['Kebangsaan'],None,3.13397,101.727
Sekolah Menengah Kebangsaan Cochrane,Secondary,['SM Kebangsaan'],secondary,education,None,,None,Public School,None,None,['SM Kebangsaan'],None,3.13108,101.726
Sekolah Kebangsaan Yaacob Latif 2,Primary,['Kebangsaan'],primary,education,None,,None,Public School,None,None,['Kebangsaan'],None,3.1276,101.726833
Sekolah Kebangsaan Yaacob Latif 1,Primary,['Kebangsaan'],primary,education,None,,None,Public School,None,None,['Kebangsaan'],None,3.1276,101.726833
Sekolah Menengah Kebangsaan Datok Lokman,Secondary,['SM Kebangsaan'],secondary,education,None,,None,Public School,None,None,['SM Kebangsaan'],None,3.13942,101.729
Sekolah Menengah Kebangsaan Yaacob Latif,Secondary,['SM Kebangsaan'],secondary,education,None,,None,Public School,None,None,['SM Kebangsaan'],None,3.128,101.726
Sekolah Kebangsaan Seri Bintang Utara,Primary,['Kebangsaan'],primary,education,None,,None,Public School,None,None,['Kebangsaan'],None,3.12167,101.735162
Sekolah Menengah Kebangsaan Taman Maluri,Secondary,['SM Kebangsaan'],secondary,education,None,,None,Public School,None,None,['SM Kebangsaan'],None,3.14085,101.73
Sekolah Menengah Kebangsaan Cochrane Perkasa,Secondary,['SM Kebangsaan'],secondary,education,None,,None,Public School,None,None,['SM Kebangsaan'],None,3.134798,101.724891
Sekolah Jenis Kebangsaan (Tamil) Kg Pandan,Primary,['Jenis Kebangsaan (T)'],primary,education,None,,None,Public School,None,None,['Jenis Kebangsaan (T)'],None,3.14227,101.73700000000001
Sekolah Menengah Kebangsaan Aminuddin Baki,Secondary,['SM Kebangsaan'],cluster,education,None,,None,Public School,None,None,['SM Kebangsaan'],None,3.14012,101.728
WOU - Wawasan Open University,Tertiary,None,tertiary,education,None,,None,Private University,None,None,None,None,3.122304,101.7298773
Sekolah Menengah Kebangsaan Seri Bintang Utara,Secondary,['SM Kebangsaan'],cluster,education,None,,None,Public School,None,None,['SM Kebangsaan'],None,3.121022,101.734586
Sekolah Kebangsaan Taman Maluri,Primary,['Kebangsaan'],primary,education,None,,None,Public School,None,None,['Kebangsaan'],None,3.1422,101.729
Sekolah Kebangsaan Tun Hussein Onn,Primary,['Kebangsaan'],primary,education,None,,None,Public School,None,None,['Kebangsaan'],None,3.1432700000000002,101.73899999999999
Sekolah Kebangsaan Cheras Indah,Primary,['Kebangsaan'],primary,education,None,,None,Public School,None,None,['Kebangsaan'],None,3.125906,101.746178
Sekolah Menengah Kebangsaan Seri Bintang Selatan,Secondary,['SM Kebangsaan'],cluster,education,None,,None,Public School,None,None,['SM Kebangsaan'],None,3.11895,101.735
Sekolah Kebangsaan Seri Bintang Selatan,Primary,['Kebangsaan'],primary,education,None,,None,Public School,None,None,['Kebangsaan'],None,3.1183419999999997,101.734879
Sekolah Jenis Kebangsaan (Tamil) Cheras,Primary,['Jenis Kebangsaan (T)'],primary,education,None,,None,Public School,None,None,['Jenis Kebangsaan (T)'],None,3.12698,101.72200000000001
Sekolah Menengah Kebangsaan Convent Jalan Peel,Secondary,['SM Kebangsaan'],secondary,education,None,,None,Public School,None,None,['SM Kebangsaan'],None,3.1313299999999997,101.721
Sekolah Kebangsaan Convent Jln Peel,Primary,['Kebangsaan'],primary,education,None,,None,Public School,None,None,['Kebangsaan'],None,3.13153,101.72
Sekolah Kebangsaan Pendidikan Khas Jln Peel,Primary,['Kebangsaan'],primary,education,None,,None,Public School,None,None,['Kebangsaan'],None,3.1309299999999998,101.72
Sekolah Kebangsaan Jalan Peel,Primary,['Kebangsaan'],primary,education,None,,None,Public School,None,None,['Kebangsaan'],None,3.13058,101.72
Brainy Bunch -  Desa Pandan,Elementary High Kindergarten,None,elementary,education,None,,None,Preschool,None,None,None,Montessori,3.1469,101.738
Brainy Bunch -  Pandan Indah,Elementary High Kindergarten,None,elementary,education,None,,None,Preschool,None,None,None,Montessori,3.128703,101.751308
Sekolah Jenis Kebangsaan (Cina) Naam Kheung,Primary,['Jenis Kebangsaan (C)'],primary,education,None,,None,Public School,None,None,['Jenis Kebangsaan (C)'],None,3.118618,101.724609
Sekolah Menengah Kebangsaan Miharja,Secondary,['SM Kebangsaan'],secondary,education,None,,None,Public School,None,None,['SM Kebangsaan'],None,3.1214720000000002,101.72166899999999
Sekolah Kebangsaan Jalan Pasar 1,Primary,['Kebangsaan'],primary,education,None,,None,Public School,None,None,['Kebangsaan'],None,3.1368,101.71799999999999
Sekolah Kebangsaan Desa Pandan,Primary,['Kebangsaan'],primary,education,None,,None,Public School,None,None,['Kebangsaan'],None,3.14973,101.738
Sekolah Kebangsaan Pandan Indah,Primary,['Kebangsaan'],primary,education,None,,None,Public School,None,None,['Kebangsaan'],None,3.1255509999999997,101.75196899999999
TMC College,Tertiary,None,tertiary,education,None,,None,Private College,None,None,None,None,3.124114,101.718625
Sekolah Kebangsaan Seri Cheras,Primary,['Kebangsaan'],primary,education,None,,None,Public School,None,None,['Kebangsaan'],None,3.11503,101.728
Sekolah Menengah Kebangsaan Puterijaya,Secondary,['SM Kebangsaan'],secondary,education,None,,None,Public School,None,None,['SM Kebangsaan'],None,3.13597,101.71700000000001
Sekolah Kebangsaan Pandan Perdana,Primary,['Kebangsaan'],primary,education,None,,None,Public School,None,None,['Kebangsaan'],None,3.114973,101.743601
Sekolah Menengah Kebangsaan Pandan Indah,Secondary,['SM Kebangsaan'],secondary,education,None,,None,Public School,None,None,['SM Kebangsaan'],None,3.12282,101.752183
Sekolah Menengah Kebangsaan (P) Pudu,Secondary,['SM Kebangsaan'],secondary,education,None,,None,Public School,None,None,['SM Kebangsaan'],None,3.131774,101.714903
Sekolah Kebangsaan Taman Nirwana,Primary,['Kebangsaan'],primary,education,None,,None,Public School,None,None,['Kebangsaan'],None,3.143081,101.751851
Sekolah Jenis Kebangsaan (Cina) Chin Woo,Primary,['Jenis Kebangsaan (C)'],primary,education,None,,None,Public School,None,None,['Jenis Kebangsaan (C)'],None,3.136857,101.715086
HELP CAT - HELP College of Arts and Technology,Tertiary,None,tertiary,education,None,,None,Private College,None,None,None,None,3.128314,101.714417
Sekolah Jenis Kebangsaan (Cina) Kung Min,Primary,['Jenis Kebangsaan (C)'],primary,education,None,,None,Public School,None,None,['Jenis Kebangsaan (C)'],None,3.1364349999999996,101.714125
Sekolah Kebangsaan (P) Pudu 1,Primary,['Kebangsaan'],primary,education,None,,None,Public School,None,None,['Kebangsaan'],None,3.1311,101.713
Sekolah Kebangsaan Dato Abu Bakar,Primary,['Kebangsaan'],primary,education,None,,None,Public School,None,None,['Kebangsaan'],None,3.1404549999999998,101.714303
Sekolah Jenis Kebangsaan (Cina) Chong Fah Phit Chee,Primary,['Jenis Kebangsaan (C)'],primary,education,None,,None,Public School,None,None,['Jenis Kebangsaan (C)'],None,3.1387,101.713382
The International School of Kuala Lumpur (ISKL),Early years Elementary Middle High,None,early years,education,None,,None,International School,None,None,None,International Baccalaureate (IB) American,3.154265,101.739499
Sekolah Menengah Kebangsaan (P) Bandaraya,Secondary,['SM Kebangsaan'],secondary,education,None,,None,Public School,None,None,['SM Kebangsaan'],None,3.140675,101.713824
Sekolah Kebangsaan Taman Muda,Primary,['Kebangsaan'],primary,education,None,,None,Public School,None,None,['Kebangsaan'],None,3.120505,101.7561
Sekolah Menengah Kebangsaan Cheras,Secondary,['SM Kebangsaan'],secondary,education,None,,None,Public School,None,None,['SM Kebangsaan'],None,3.10927,101.727
TreeTop House,Preschool,None,preschool,education,None,,None,Preschool,None,None,None,Montessori,3.1544849999999998,101.725026
The children's house - U-Thant,Preschool,None,preschool,education,None,,None,Preschool,None,None,None,Montessori,3.1534791,101.722923
EtonHouse International School Kuala Lumpur,Primary Preschool,None,primary,education,None,,None,International School,None,None,None,International Baccalaureate (IB),3.1527,101.7216
Sekolah Menengah Kebangsaan Dato' Onn,Secondary,['SM Kebangsaan'],secondary,education,None,,None,Public School,None,None,['SM Kebangsaan'],None,3.13377,101.71
Sekolah Kebangsaan Kg Cheras Baharu,Primary,['Kebangsaan'],primary,education,None,,None,Public School,None,None,['Kebangsaan'],None,3.111171,101.74976
Sekolah Jenis Kebangsaan (Cina) Chung Kwo,Primary,['Jenis Kebangsaan (C)'],primary,education,None,,None,Public School,None,None,['Jenis Kebangsaan (C)'],None,3.132858,101.709187
YTL International College of Hotel Management,Tertiary,None,tertiary,education,None,,None,Private College,None,None,None,None,3.147193,101.713901
Sekolah Jenis Kebangsaan (Tamil) Jln San Peng,Primary,['Jenis Kebangsaan (T)'],primary,education,None,,None,Public School,None,None,['Jenis Kebangsaan (T)'],None,3.13388,101.709
The children's house - Ampang,Preschool,None,preschool,education,None,,None,Preschool,None,None,None,Montessori,3.1583914,101.73086590000001
Klinik Kesihatan Cheras ,Clinic,None,clinic,healthcare,None,,None,Government,Bandar Tun Razak,Kuala Lumpur,None,None,3.122382,101.730201
Tags Specialist Center,Hospital,None,hospital,healthcare,None,,None,Private,None,None,None,None,3.1223202000000003,101.7292372
Klinik Kesihatan Kampung Pandan,Clinic,None,clinic,healthcare,None,,None,Government,Kampung Pandan,Kuala Lumpur,None,None,3.144239,101.732539
Pantai Hospital Ampang,Hospital,None,hospital,healthcare,None,,None,Private,None,None,None,None,3.1279169999999996,101.75234
Beverly Wilshire Medical Centre,Hospital,None,hospital,healthcare,None,,None,Private,None,None,None,None,3.145724,101.721688
Cheras Specialist Maternity Centre,Hospital,None,hospital,healthcare,None,,None,Private,None,None,None,None,3.11293,101.7295898
Pusat Perubatan Prince Court,Hospital,None,hospital,healthcare,None,,None,Private,None,None,None,None,3.148735,101.72198940000001
Pudu Specialists Centre Sdn. Bhd.,Hospital,None,hospital,healthcare,None,,None,Private,None,None,None,None,3.1395436,101.7106694
Pandan Jaya,LRT,None,lrt,transportation,LRT Ampang Line,,1996,None,None,None,None,None,3.1304492,101.7382688
Cheras,LRT,None,lrt,transportation,LRT Sri Petaling Line,,1998,None,None,None,None,None,3.123772,101.7283342
Maluri,LRT,None,lrt,transportation,LRT Ampang Line,,1996,None,None,None,None,None,3.123772,101.7283342
Aeon Maluri,MRT,None,mrt,transportation,MRT Sungai Buloh-Kajang Line,,2017,None,None,None,None,None,3.124404,101.727188
Pandan Indah,LRT,None,lrt,transportation,LRT Ampang Line,,1996,None,None,None,None,None,3.1347269,101.7467121
Cochrane,MRT,None,mrt,transportation,MRT Sungai Buloh-Kajang Line,,2017,None,None,None,None,None,3.132294,101.722939
Chan Sow Lin,MRT,None,mrt,transportation,MRT Sungai Buloh-Serdang-Putrajaya Line,,2022,None,None,None,None,None,3.1289119999999997,101.716437
Tun Razak Exchange (Trx),MRT,None,mrt,transportation,MRT Sungai Buloh-Kajang Line,,2017,None,None,None,None,None,3.142988,101.719738
Cempaka,LRT,None,lrt,transportation,LRT Ampang Line,,1996,None,None,None,None,None,3.1384783,101.75305290000001
Tun Razak Exchange,MRT,None,mrt,transportation,MRT Sungai Buloh-Serdang-Putrajaya Line,,2022,None,None,None,None,None,3.143569,101.719711
Chan Sow Lin,LRT,None,lrt,transportation,LRT Ampang Line | LRT Sri Petaling Line,,1998,None,None,None,None,None,3.1281047,101.7156366
Taman Pertama,MRT,None,mrt,transportation,MRT Sungai Buloh-Kajang Line,,2017,None,None,None,None,None,3.11262,101.729256
Miharja,LRT,None,lrt,transportation,LRT Ampang Line,,1996,None,None,None,None,None,3.1209905,101.7178829
Pudu,LRT,None,lrt,transportation,LRT Ampang Line | LRT Sri Petaling Line,,1998,None,None,None,None,None,3.1348902,101.7119668
Cahaya,LRT,None,lrt,transportation,LRT Ampang Line,,1996,None,None,None,None,None,3.1405898,101.7566128
Conlay,MRT,None,mrt,transportation,MRT Sungai Buloh-Serdang-Putrajaya Line,,2022,None,None,None,None,None,3.149649,101.718889
Garden International School,Primary Secondary Early years,None,primary,education,None,,None,International School,None,None,None,British,3.16799,101.648877
Trinity Kids - Summer Suites KL,Primary Preschool,None,primary,education,None,,None,Preschool,None,None,None,International,3.167454,101.646384
Trinity Kids - Mont Kiara,Preschool,None,preschool,education,None,,None,Preschool,None,None,None,International,3.1674535,101.644195
Brainy Bunch  - Sri Hartamas,Elementary High Kindergarten,None,elementary,education,None,,None,Preschool,None,None,None,Montessori,3.1605,101.6504
Garden International School Early Years Centre,Preschool,None,preschool,education,None,,None,Preschool,None,None,None,British,3.158849,101.64733299999999
Sekolah Kebangsaan Seri Hartamas,Primary,['Kebangsaan'],primary,education,None,,None,Public School,None,None,['Kebangsaan'],None,3.16077,101.654
Sekolah Menengah Kebangsaan Seri Hartamas,Secondary,['SM Kebangsaan'],secondary,education,None,,None,Public School,None,None,['SM Kebangsaan'],None,3.15748,101.647
The children's house - Aman Walk,Preschool,None,preschool,education,None,,None,Preschool,None,None,None,Montessori,3.1722407,101.65481940000001
Mont'Kiara International School (MKIS),Elementary Middle High Kindergarten,None,elementary,education,None,,None,International School,None,None,None,International Baccalaureate (IB) American,3.1737515,101.65315859999998
Sekolah Kebangsaan Bkt Damansara,Primary,['Kebangsaan'],primary,education,None,,None,Public School,None,None,['Kebangsaan'],None,3.15677,101.656
Lycee Francais de Kuala Lumpur (LFKL),Primary Secondary Kindergarten,None,primary,education,None,,None,International School,None,None,None,French,3.1790657,101.653807
The children's house - Mont Kiara,Preschool,None,preschool,education,None,,None,Preschool,None,None,None,Montessori,3.1735011,101.6626137
Cempaka International School - Damansara Heights Campus,Primary Secondary,None,primary,education,None,,None,International School,None,None,None,International Baccalaureate (IB),3.1517157000000005,101.65698090000001
MFA - Malaysian Flying Academy,Tertiary,None,tertiary,education,None,,None,Private College,None,None,None,None,3.159607,101.664939
Sekolah Kebangsaan Segambut Makmur,Primary,['Kebangsaan'],primary,education,None,,None,Public School,None,None,['Kebangsaan'],None,3.1811,101.65700000000001
Sekolah Kebangsaan Kiaramas,Primary,['Kebangsaan'],primary,education,None,,None,Public School,None,None,['Kebangsaan'],None,3.17662,101.663
Trinity Kids - Solaris Dutamas,Primary Preschool,None,primary,education,None,,None,Preschool,None,None,None,International,3.1708952,101.666093
The children's house - Bruas,Early years,None,early years,education,None,,None,Preschool,None,None,None,Montessori,3.1508163,101.6593989
The children's house - Batai,Preschool,None,preschool,education,None,,None,Preschool,None,None,None,Montessori,3.1507322,101.6592786
Sekolah Menengah Kebangsaan Kiaramas,Secondary,['SM Kebangsaan'],secondary,education,None,,None,Public School,None,None,['SM Kebangsaan'],None,3.17865,101.663
Eaton School House,Preschool,None,preschool,education,None,,None,Preschool,None,None,None,Montessori,3.1501639,101.66203359999999
Brainy Bunch -  Segambut (new),Elementary High Kindergarten,None,elementary,education,None,,None,Preschool,None,None,None,Montessori,3.1852185,101.6537584
Sekolah Menengah Kebangsaan Segambut Jaya,Secondary,['SM Kebangsaan'],secondary,education,None,,None,Public School,None,None,['SM Kebangsaan'],None,3.18552,101.65299999999999
Hi-5 House of Learning,Preschool,None,preschool,education,None,,None,Preschool,None,None,None,British,3.1502991000000002,101.6647551
Sekolah Stella Maris - Medan Damansara,Primary Secondary,None,primary,education,None,,None,Private School,None,None,None,Local Curriculum,3.1437672,101.6562058
Sekolah Kebangsaan Sg Penchala,Primary,['Kebangsaan'],primary,education,None,,None,Public School,None,None,['Kebangsaan'],None,3.165438,101.625782
Sekolah Kebangsaan Taman Seri Sinar,Primary,['Kebangsaan'],primary,education,None,,None,Public School,None,None,['Kebangsaan'],None,3.18827,101.654
Sekolah Menengah Kebangsaan Sinar Bintang,Secondary,['SM Kebangsaan'],secondary,education,None,,None,Public School,None,None,['SM Kebangsaan'],None,3.1886799999999997,101.645
Sekolah Jenis Kebangsaan (Cina) Kepong 3,Primary,['Jenis Kebangsaan (C)'],primary,education,None,,None,Public School,None,None,['Jenis Kebangsaan (C)'],None,3.18853,101.640709
Kolej Tingkatan Enam Desa Mahkota,Secondary,['Kolej'],secondary,education,None,,None,Public School,None,None,['Kolej'],None,3.188694,101.639831
The International School @ Parkcity,Primary Secondary Preschool,None,primary,education,None,,None,International School,None,None,None,British,3.1879,101.6376
Sekolah Kebangsaan Seri Kepong,Primary,['Kebangsaan'],primary,education,None,,None,Public School,None,None,['Kebangsaan'],None,3.1912700000000003,101.647
HELP University,Tertiary,None,tertiary,education,None,,None,Private University,None,None,None,None,3.152199,101.67129200000001
Sekolah Kebangsaan Taman Tun Dr. Ismail (2),Primary,['Kebangsaan'],primary,education,None,,None,Public School,None,None,['Kebangsaan'],None,3.1456,101.631
Hibiscus International School,Primary Secondary Early years,None,primary,education,None,,None,International School,None,None,None,British,3.1900275000000002,101.6602254
Global Doctors Centre,Hospital,None,hospital,healthcare,None,,None,Private,None,None,None,None,3.1683383,101.6488143
KLSMC Hospital,Hospital,None,hospital,healthcare,None,,None,Private,None,None,None,None,3.152311,101.665472
Parkcity Medical Centre,Hospital,None,hospital,healthcare,None,,None,Private,None,None,None,None,3.1894857000000005,101.63829009999999
Manulife Semantan,MRT,None,mrt,transportation,MRT Sungai Buloh-Kajang Line,,2017,None,None,None,None,None,3.1509419999999997,101.665245
Segambut,KTM Komuter,None,ktm komuter,transportation,KTM Port Klang Line,,1995,None,None,None,None,None,3.1863889,101.6638889
Pavillion Damansara Heights Pusat Bandar Damansara,MRT,None,mrt,transportation,MRT Sungai Buloh-Kajang Line,,2017,None,None,None,None,None,3.143259,101.6623
United Point,KTM Komuter,None,ktm komuter,transportation,KTM Port Klang Line,,2019,None,None,None,None,None,3.1916919999999998,101.655263
Sekolah Menengah Kebangsaan Bukit Bandaraya,Secondary,['SM Kebangsaan'],secondary,education,None,,None,Public School,None,None,['SM Kebangsaan'],None,3.14282,101.67200000000001
Sekolah Kebangsaan Bukit Bandaraya,Primary,['Kebangsaan'],primary,education,None,,None,Public School,None,None,['Kebangsaan'],None,3.1376,101.671
Sekolah Stella Maris - Medan Damansara,Primary Secondary,None,primary,education,None,,None,Private School,None,None,None,Local Curriculum,3.1437672,101.6562058
Hi-5 House of Learning,Preschool,None,preschool,education,None,,None,Preschool,None,None,None,British,3.1502991000000002,101.6647551
Eaton School House,Preschool,None,preschool,education,None,,None,Preschool,None,None,None,Montessori,3.1501639,101.66203359999999
Safari Kid,Preschool,None,preschool,education,None,,None,Preschool,None,None,None,Montessori,3.1348015,101.65910190000001
The children's house - Batai,Preschool,None,preschool,education,None,,None,Preschool,None,None,None,Montessori,3.1507322,101.6592786
The children's house - Bruas,Early years,None,early years,education,None,,None,Preschool,None,None,None,Montessori,3.1508163,101.6593989
Brainy Bunch - Bangsar,Elementary High Kindergarten,None,elementary,education,None,,None,Preschool,None,None,None,Montessori,3.1310801,101.665882
The children's house - Bangsar,Preschool,None,preschool,education,None,,None,Preschool,None,None,None,Montessori,3.1310000000000002,101.6678
Cempaka International School - Damansara Heights Campus,Primary Secondary,None,primary,education,None,,None,International School,None,None,None,International Baccalaureate (IB),3.1517157000000005,101.65698090000001
HELP University,Tertiary,None,tertiary,education,None,,None,Private University,None,None,None,None,3.152199,101.67129200000001
Sekolah Kebangsaan Bukit Pantai,Primary,['Kebangsaan'],primary,education,None,,None,Public School,None,None,['Kebangsaan'],None,3.1284799999999997,101.666
Sekolah Menengah Kebangsaan Bangsar,Secondary,['SM Kebangsaan'],secondary,education,None,,None,Public School,None,None,['SM Kebangsaan'],None,3.132561,101.676511
Sekolah Kebangsaan Bkt Damansara,Primary,['Kebangsaan'],primary,education,None,,None,Public School,None,None,['Kebangsaan'],None,3.15677,101.656
MFA - Malaysian Flying Academy,Tertiary,None,tertiary,education,None,,None,Private College,None,None,None,None,3.159607,101.664939
Sekolah Jenis Kebangsaan (Tamil) Jalan Bangsar,Primary,['Jenis Kebangsaan (T)'],primary,education,None,,None,Public School,None,None,['Jenis Kebangsaan (T)'],None,3.128774,101.67873399999999
Sekolah Kebangsaan Seri Hartamas,Primary,['Kebangsaan'],primary,education,None,,None,Public School,None,None,['Kebangsaan'],None,3.16077,101.654
Brainy Bunch - KL Sentral (new),Elementary Kindergarten,None,elementary,education,None,,None,Preschool,None,None,None,Montessori,3.1338793999999996,101.68479959999999
Universiti Teknologi Malaysia (Utm) Kl Campus,Tertiary,['Public University'],tertiary,education,None,,None,Public University,None,None,['Public University'],None,3.1390029999999998,101.686854
Brainy Bunch  - Sri Hartamas,Elementary High Kindergarten,None,elementary,education,None,,None,Preschool,None,None,None,Montessori,3.1605,101.6504
Sekolah Menengah Kebangsaan Seri Hartamas,Secondary,['SM Kebangsaan'],secondary,education,None,,None,Public School,None,None,['SM Kebangsaan'],None,3.15748,101.647
Garden International School Early Years Centre,Preschool,None,preschool,education,None,,None,Preschool,None,None,None,British,3.158849,101.64733299999999
Sekolah Kebangsaan La Salle (1) Brickfields,Primary,['Kebangsaan'],primary,education,None,,None,Public School,None,None,['Kebangsaan'],None,3.1273779999999998,101.684016
Global Indian International School (GIIS),Primary Secondary Preschool,None,primary,education,None,,None,International School,None,None,None,Cambridge,3.1279,101.68482
Sekolah Menengah Kebangsaan Vivekananda,Secondary,['SM Kebangsaan'],secondary,education,None,,None,Public School,None,None,['SM Kebangsaan'],None,3.12968,101.686
Sekolah Jenis Kebangsaan (Cina) St. Teresa Brickfields,Primary,['Jenis Kebangsaan (C)'],primary,education,None,,None,Public School,None,None,['Jenis Kebangsaan (C)'],None,3.127669,101.684754
Sekolah Menengah Kebangsaan La Salle Brickfields,Secondary,['SM Kebangsaan'],secondary,education,None,,None,Public School,None,None,['SM Kebangsaan'],None,3.12767,101.685
PIDC - Penang International Dental College,Tertiary,None,tertiary,education,None,,None,Private College,None,None,None,None,3.127789,101.643403
Sekolah Jenis Kebangsaan (Tamil) Vivekananda,Primary,['Jenis Kebangsaan (T)'],primary,education,None,,None,Public School,None,None,['Jenis Kebangsaan (T)'],None,3.13063,101.68700000000001
Brickfields Asia College (BAC) Kuala Lumpur,Tertiary,None,tertiary,education,None,,None,Private College,None,None,None,None,3.133554,101.688714
Havil International School,Primary Secondary,None,primary,education,None,,None,International School,None,None,None,Cambridge,3.1284,101.6863
Sekolah Kebangsaan St. Teresa Brickfields 1,Primary,['Kebangsaan'],primary,education,None,,None,Public School,None,None,['Kebangsaan'],None,3.1267419999999997,101.685199
Sekolah Kebangsaan Bangsar,Primary,['Kebangsaan'],primary,education,None,,None,Public School,None,None,['Kebangsaan'],None,3.11627,101.67
Meritus University,Tertiary,None,tertiary,education,None,,None,Private University,None,None,None,None,3.118572,101.676691
Sekolah Kebangsaan Brickfields 1,Primary,['Kebangsaan'],primary,education,None,,None,Public School,None,None,['Kebangsaan'],None,3.130492,101.68828
Sekolah Kebangsaan Brickfields 2,Primary,['Kebangsaan'],primary,education,None,,None,Public School,None,None,['Kebangsaan'],None,3.130909,101.688732
Sri Dasmesh International School,Primary Secondary,None,primary,education,None,,None,International School,None,None,None,British,3.115598,101.669411
KLSMC Hospital,Hospital,None,hospital,healthcare,None,,None,Private,None,None,None,None,3.152311,101.665472
Pantai Hospital Kuala Lumpur,Hospital,None,hospital,healthcare,None,,None,Private,None,None,None,None,3.1196951,101.66656970000001
Pavillion Damansara Heights Pusat Bandar Damansara,MRT,None,mrt,transportation,MRT Sungai Buloh-Kajang Line,,2017,None,None,None,None,None,3.143259,101.6623
Manulife Semantan,MRT,None,mrt,transportation,MRT Sungai Buloh-Kajang Line,,2017,None,None,None,None,None,3.1509419999999997,101.665245
Bangsar,LRT,None,lrt,transportation,LRT Kelana Jaya Line,,1998,None,None,None,None,None,3.12748,101.679034
KL Sentral,ERL,None,erl,transportation,ERL KLIA Transit Line | ERL KLIA Ekspres Line,,2002,None,None,None,None,None,3.1341667,101.68611109999999
KL Sentral,KTM Komuter,None,ktm komuter,transportation,KTM Seremban Line | KTM Port Klang Line,,1995,None,None,None,None,None,3.1341667,101.68611109999999
KL Sentral,LRT,None,lrt,transportation,LRT Kelana Jaya Line,,1998,None,None,None,None,None,3.13442,101.68625
Muzium Negara (Kl Sentral),MRT,None,mrt,transportation,MRT Sungai Buloh-Kajang Line,,2017,None,None,None,None,None,3.1372430000000002,101.68710300000001
Eco City,KTM Komuter,None,ktm komuter,transportation,KTM Port Klang Line,,2018,None,None,None,None,None,3.119946,101.674018
Abdullah Hukum,LRT,None,lrt,transportation,LRT Kelana Jaya Line,,1998,None,None,None,None,None,3.118749,101.67294229999999
Phileo Damansara,MRT,None,mrt,transportation,MRT Sungai Buloh-Kajang Line,,2017,None,None,None,None,None,3.12915,101.64285799999999
KL Sentral,Monorail,None,monorail,transportation,KL Monorail,,2003,None,None,None,None,None,3.1326072999999997,101.6878388
Kerinchi,LRT,None,lrt,transportation,LRT Kelana Jaya Line,,1998,None,None,None,None,None,3.1154557,101.66854040000001
Sekolah Jenis Kebangsaan (Tamil) Ladang Edinburgh,Primary,['Jenis Kebangsaan (T)'],primary,education,None,,None,Public School,None,None,['Jenis Kebangsaan (T)'],None,3.2025799999999998,101.633
Sekolah Menengah Kebangsaan Taman Bukit Maluri,Secondary,['SM Kebangsaan'],secondary,education,None,,None,Public School,None,None,['SM Kebangsaan'],None,3.20245,101.634
Sekolah Kebangsaan Taman Bukit Maluri,Primary,['Kebangsaan'],cluster,education,None,,None,Public School,None,None,['Kebangsaan'],None,3.2037,101.633
Sma Kuala Lumpur,Secondary,['SMK Agama'],secondary,education,None,,None,Public School,None,None,['SMK Agama'],None,3.1973700000000003,101.626
Brainy Bunch - Bandar Manjalara (new),Elementary High Kindergarten,None,elementary,education,None,,None,Preschool,None,None,None,Montessori,3.1938767000000006,101.6301282
Sekolah Menengah Kebangsaan Menjalara,Secondary,['SM Kebangsaan'],secondary,education,None,,None,Public School,None,None,['SM Kebangsaan'],None,3.193501,101.636275
Sekolah Kebangsaan Menjalara,Primary,['Kebangsaan'],primary,education,None,,None,Public School,None,None,['Kebangsaan'],None,3.193969,101.637578
Sekolah Kebangsaan Bandar Baru Sri Damansara,Primary,['Kebangsaan'],primary,education,None,,None,Public School,None,None,['Kebangsaan'],None,3.206248,101.62431600000001
Sekolah Jenis Kebangsaan (Cina) Kepong 1,Primary,['Jenis Kebangsaan (C)'],primary,education,None,,None,Public School,None,None,['Jenis Kebangsaan (C)'],None,3.214727,101.634847
Pintar College,Tertiary,None,tertiary,education,None,,None,Private College,None,None,None,None,3.2146369999999997,101.635976
The International School @ Parkcity,Primary Secondary Preschool,None,primary,education,None,,None,International School,None,None,None,British,3.1879,101.6376
Sekolah Kebangsaan Kepong Baru,Primary,['Kebangsaan'],primary,education,None,,None,Public School,None,None,['Kebangsaan'],None,3.205899,101.645528
Kolej Tingkatan Enam Desa Mahkota,Secondary,['Kolej'],secondary,education,None,,None,Public School,None,None,['Kolej'],None,3.188694,101.639831
Sekolah Jenis Kebangsaan (Cina) Kepong 2,Primary,['Jenis Kebangsaan (C)'],primary,education,None,,None,Public School,None,None,['Jenis Kebangsaan (C)'],None,3.215564,101.634744
Sekolah Jenis Kebangsaan (Cina) Kepong 3,Primary,['Jenis Kebangsaan (C)'],primary,education,None,,None,Public School,None,None,['Jenis Kebangsaan (C)'],None,3.18853,101.640709
Sekolah Menengah Kebangsaan Kepong Baru,Secondary,['SM Kebangsaan'],secondary,education,None,,None,Public School,None,None,['SM Kebangsaan'],None,3.1977700000000002,101.647
Sekolah Kebangsaan Taman Kepong,Primary,['Kebangsaan'],primary,education,None,,None,Public School,None,None,['Kebangsaan'],None,3.19895,101.648
Montessori Kids Academy,Preschool,None,preschool,education,None,,None,Preschool,None,None,None,Montessori,3.195385,101.616422
Sekolah Jenis Kebangsaan (Cina) Desa Jaya,Primary,['Jenis Kebangsaan (C)'],primary,education,None,,None,Public School,None,None,['Jenis Kebangsaan (C)'],None,3.216628,101.625497
Sekolah Kebangsaan Seri Kepong,Primary,['Kebangsaan'],primary,education,None,,None,Public School,None,None,['Kebangsaan'],None,3.1912700000000003,101.647
Sekolah Menengah Kebangsaan Sinar Bintang,Secondary,['SM Kebangsaan'],secondary,education,None,,None,Public School,None,None,['SM Kebangsaan'],None,3.1886799999999997,101.645
Sekolah Kebangsaan Taman Ehsan,Primary,['Kebangsaan'],primary,education,None,,None,Public School,None,None,['Kebangsaan'],None,3.219831,101.63068100000001
IUCTT - International University College of Technology Twintech,Tertiary,None,tertiary,education,None,,None,Private University College,None,None,None,None,3.2010509999999996,101.612749
Tzu Chi International School,Primary Secondary A-Levels,None,primary,education,None,,None,International School,None,None,None,Cambridge,3.2095517000000005,101.6495568
Sekolah Kebangsaan Bandar Sri Damansara 3,Primary,['Kebangsaan'],primary,education,None,,None,Public School,None,None,['Kebangsaan'],None,3.187781,101.616104
Brainy Bunch  - Sri Damansara,Elementary High Kindergarten,None,elementary,education,None,,None,Preschool,None,None,None,Montessori,3.187011,101.615323
Sekolah Sri Bestari,Primary Secondary Kindergarten,None,primary,education,None,,None,Private School,None,None,None,Local Curriculum,3.19437,101.6101199
Sekolah Menengah Kebangsaan Taman Ehsan,Secondary,['SM Kebangsaan'],secondary,education,None,,None,Public School,None,None,['SM Kebangsaan'],None,3.222395,101.623458
Sekolah Kebangsaan Desa Amanpuri,Primary,['Kebangsaan'],primary,education,None,,None,Public School,None,None,['Kebangsaan'],None,3.217223,101.614163
Sri Bestari International School,Primary Secondary reception,None,primary,education,None,,None,International School,None,None,None,British,3.190963,101.6094795
Sekolah Menengah Kebangsaan Kepong,Secondary,['SM Kebangsaan'],secondary,education,None,,None,Public School,None,None,['SM Kebangsaan'],None,3.225578,101.63539200000001
Sekolah Kebangsaan Bandar Baru Sri Damansara 2,Primary,['Kebangsaan'],primary,education,None,,None,Public School,None,None,['Kebangsaan'],None,3.196095,101.607499
Sekolah Kebangsaan Taman Seri Sinar,Primary,['Kebangsaan'],primary,education,None,,None,Public School,None,None,['Kebangsaan'],None,3.18827,101.654
Sekolah Menengah Kebangsaan Segambut Jaya,Secondary,['SM Kebangsaan'],secondary,education,None,,None,Public School,None,None,['SM Kebangsaan'],None,3.18552,101.65299999999999
Brainy Bunch -  Segambut (new),Elementary High Kindergarten,None,elementary,education,None,,None,Preschool,None,None,None,Montessori,3.1852185,101.6537584
Sekolah Jenis Kebangsaan (Tamil) Segambut,Primary,['Jenis Kebangsaan (T)'],primary,education,None,,None,Public School,None,None,['Jenis Kebangsaan (T)'],None,3.195592,101.658441
Parkcity Medical Centre,Hospital,None,hospital,healthcare,None,,None,Private,None,None,None,None,3.1894857000000005,101.63829009999999
Klinik Pakar Wanita Kepong Dan Pusat Bersalin,Hospital,None,hospital,healthcare,None,,None,Private,None,None,None,None,3.2131060000000002,101.64611020000001
Kepong,KTM Komuter,None,ktm komuter,transportation,KTM Port Klang Line,,1995,None,None,None,None,None,3.2025,101.63722220000001
Kepong Sentral,MRT,None,mrt,transportation,MRT Sungai Buloh-Serdang-Putrajaya Line,,2022,None,None,None,None,None,3.2079459999999997,101.628578
Kepong Sentral,KTM Komuter,None,ktm komuter,transportation,KTM Port Klang Line,,1995,None,None,None,None,None,3.2086111,101.6280556
Sri Damansara East,MRT,None,mrt,transportation,MRT Sungai Buloh-Serdang-Putrajaya Line,,2022,None,None,None,None,None,3.198734,101.621178
Metro Prima,MRT,None,mrt,transportation,MRT Sungai Buloh-Serdang-Putrajaya Line,,2022,None,None,None,None,None,3.2145669999999997,101.64065699999999
Kepong Baru,MRT,None,mrt,transportation,MRT Sungai Buloh-Serdang-Putrajaya Line,,2022,None,None,None,None,None,3.211774,101.647816
Sri Damansara West,MRT,None,mrt,transportation,MRT Sungai Buloh-Serdang-Putrajaya Line,,2022,None,None,None,None,None,3.1985959999999998,101.60824699999999
Jinjang,MRT,None,mrt,transportation,MRT Sungai Buloh-Serdang-Putrajaya Line,,2022,None,None,None,None,None,3.209457,101.65561600000001
United Point,KTM Komuter,None,ktm komuter,transportation,KTM Port Klang Line,,2019,None,None,None,None,None,3.1916919999999998,101.655263
Sekolah Jenis Kebangsaan (Cina) Yoke Nam,Primary,['Jenis Kebangsaan (C)'],primary,education,None,,None,Public School,None,None,['Jenis Kebangsaan (C)'],None,3.074306,101.67567700000001
Sekolah Kebangsaan Seri Indah,Primary,['Kebangsaan'],primary,education,None,,None,Public School,None,None,['Kebangsaan'],None,3.06725,101.675
Sekolah Kebangsaan Seri Mega,Primary,['Kebangsaan'],primary,education,None,,None,Public School,None,None,['Kebangsaan'],None,3.07728,101.671
Sekolah Kebangsaan Seri Saujana,Primary,['Kebangsaan'],primary,education,None,,None,Public School,None,None,['Kebangsaan'],None,3.068956412,101.6835191
Sekolah Menengah Kebangsaan Seri Saujana,Secondary,['SM Kebangsaan'],secondary,education,None,,None,Public School,None,None,['SM Kebangsaan'],None,3.0679936110000003,101.6840713
Sekolah Jenis Kebangsaan (Cina) La Salle,Primary,['Jenis Kebangsaan (C)'],primary,education,None,,None,Public School,None,None,['Jenis Kebangsaan (C)'],None,3.075479,101.68823
Sekolah Menengah Kebangsaan Taman Yarl,Secondary,['SM Kebangsaan'],secondary,education,None,,None,Public School,None,None,['SM Kebangsaan'],None,3.06747,101.667
Sekolah Menengah Kebangsaan Bandar Baru Seri Petaling,Secondary,['SM Kebangsaan'],secondary,education,None,,None,Public School,None,None,['SM Kebangsaan'],None,3.06615,101.68799999999999
Sekolah Kebangsaan Bandar Baru Seri Petaling 2,Primary,['Kebangsaan'],primary,education,None,,None,Public School,None,None,['Kebangsaan'],None,3.0664439999999997,101.689306
Sekolah Menengah Kebangsaan Dharma,Secondary,['SM Kebangsaan'],secondary,education,None,,None,Public School,None,None,['SM Kebangsaan'],None,3.0752666669999997,101.66265
The Montessori Place - Esplanad Residence,Preschool,None,preschool,education,None,,None,Preschool,None,None,None,Montessori,3.0592572999999996,101.6739878
Sekolah Kebangsaan Seri Suria,Primary,['Kebangsaan'],primary,education,None,,None,Public School,None,None,['Kebangsaan'],None,3.0709,101.662
Sekolah Rendah Sathya Sai,Primary,None,primary,education,None,,None,Private School,None,None,None,Local Curriculum,3.0756759999999996,101.66192149999999
Sekolah Jenis Kebangsaan (Tamil) Ladang Bukit Jalil,Primary,['Jenis Kebangsaan (T)'],primary,education,None,,None,Public School,None,None,['Jenis Kebangsaan (T)'],None,3.063109,101.665338
IMU - International Medical University,Tertiary,None,tertiary,education,None,,None,Private University,None,None,None,None,3.060029,101.687116
Sekolah Jenis Kebangsaan (Tamil) Saraswathy,Primary,['Jenis Kebangsaan (T)'],primary,education,None,,None,Public School,None,None,['Jenis Kebangsaan (T)'],None,3.0835939999999997,101.663381
Sekolah Jenis Kebangsaan (Cina) Lai Meng,Primary,['Jenis Kebangsaan (C)'],primary,education,None,,None,Public School,None,None,['Jenis Kebangsaan (C)'],None,3.05796,101.669026
Sekolah Menengah Kebangsaan Petaling,Secondary,['SM Kebangsaan'],secondary,education,None,,None,Public School,None,None,['SM Kebangsaan'],None,3.0806560000000003,101.660198
Sekolah Kebangsaan Petaling 2,Primary,['Kebangsaan'],primary,education,None,,None,Public School,None,None,['Kebangsaan'],None,3.0794740000000003,101.659277
Sekolah Kebangsaan Petaling 1,Primary,['Kebangsaan'],primary,education,None,,None,Public School,None,None,['Kebangsaan'],None,3.079496,101.659176
Sekolah Jenis Kebangsaan (Cina) Choong Wen,Primary,['Jenis Kebangsaan (C)'],primary,education,None,,None,Public School,None,None,['Jenis Kebangsaan (C)'],None,3.09321,101.676
Sekolah Menengah Kebangsaan Seri Sentosa,Secondary,['SM Kebangsaan'],secondary,education,None,,None,Public School,None,None,['SM Kebangsaan'],None,3.0930299999999997,101.682
Sekolah Kebangsaan Seri Setia,Primary,['Kebangsaan'],primary,education,None,,None,Public School,None,None,['Kebangsaan'],None,3.0928828999999998,101.683978
Sekolah Kebangsaan Bandar Baru Seri Petaling,Primary,['Kebangsaan'],primary,education,None,,None,Public School,None,None,['Kebangsaan'],None,3.0675830000000004,101.697456
Sekolah Kebangsaan Salak South,Primary,['Kebangsaan'],primary,education,None,,None,Public School,None,None,['Kebangsaan'],None,3.0809083389999996,101.6972446
The Montessori Place - Calvary Convention Centre,Preschool,None,preschool,education,None,,None,Preschool,None,None,None,Montessori,3.0501237,101.6807575
Sekolah Menengah Kebangsaan (P) Tmn Petaling,Secondary,['SM Kebangsaan'],secondary,education,None,,None,Public School,None,None,['SM Kebangsaan'],None,3.088812,101.65838199999999
Sekolah Menengah Kebangsaan Bukit Jalil,Secondary,['SM Kebangsaan'],secondary,education,None,,None,Public School,None,None,['SM Kebangsaan'],None,3.0507400000000002,101.686
Sekolah Jenis Kebangsaan (Cina) Yuk Chyun,Primary,['Jenis Kebangsaan (C)'],primary,education,None,,None,Public School,None,None,['Jenis Kebangsaan (C)'],None,3.077795,101.65284100000001
Sekolah Kebangsaan Bukit Jalil,Primary,['Kebangsaan'],primary,education,None,,None,Public School,None,None,['Kebangsaan'],None,3.0502,101.68700000000001
FTMS College,Tertiary,None,tertiary,education,None,,None,Private College,None,None,None,None,3.0541419999999997,101.693735
Al-Madinah International University,Tertiary,None,tertiary,education,None,,None,Private University,None,None,None,None,3.083603,101.700451
Sekolah Jenis Kebangsaan (Cina) Salak South,Primary,['Jenis Kebangsaan (C)'],primary,education,None,,None,Public School,None,None,['Jenis Kebangsaan (C)'],None,3.086843,101.699238
Klinik Kesihatan Petaling Bahagia ,Clinic,None,clinic,healthcare,None,,None,Government,Kuala Lumpur,Kuala Lumpur,None,None,3.079358,101.665244
Taman Desa Medical Centre,Hospital,None,hospital,healthcare,None,,None,Private,None,None,None,None,3.0960669999999997,101.677812
Awan Besar,LRT,None,lrt,transportation,LRT Sri Petaling Line,,2015,None,None,None,None,None,3.062046,101.670441
Sri Petaling,LRT,None,lrt,transportation,LRT Sri Petaling Line,,2015,None,None,None,None,None,3.0614527999999996,101.6870946
Petaling,KTM Komuter,None,ktm komuter,transportation,KTM Port Klang Line,,1995,None,None,None,None,None,3.0858333,101.6638889
Muhibbah,LRT,None,lrt,transportation,LRT Sri Petaling Line,,2015,None,None,None,None,None,3.061927,101.662684
Bukit Jalil,LRT,None,lrt,transportation,LRT Sri Petaling Line,,1998,None,None,None,None,None,3.0580220000000002,101.6921525
Jalan Templer,KTM Komuter,None,ktm komuter,transportation,KTM Port Klang Line,,1995,None,None,None,None,None,3.0833333,101.65638890000001
Taman Naga Emas,MRT,None,mrt,transportation,MRT Sungai Buloh-Serdang-Putrajaya Line,,2022,None,None,None,None,None,3.07792,101.699439
Pantai Dalam,KTM Komuter,None,ktm komuter,transportation,KTM Port Klang Line,,1995,None,None,None,None,None,3.095556,101.670001
Kuchai Lama,MRT,None,mrt,transportation,MRT Sungai Buloh-Serdang-Putrajaya Line,,2022,None,None,None,None,None,3.089718,101.69404499999999
Sekolah Kebangsaan La Salle (1) Sentul,Primary,['Kebangsaan'],primary,education,None,,None,Public School,None,None,['Kebangsaan'],None,3.1801,101.691742
Sekolah Menengah Kebangsaan La Salle Sentul,Secondary,['SM Kebangsaan'],secondary,education,None,,None,Public School,None,None,['SM Kebangsaan'],None,3.180112,101.69187600000001
Sekolah Jenis Kebangsaan (Tamil) Thamboosamy Pillai,Primary,['Jenis Kebangsaan (T)'],primary,education,None,,None,Public School,None,None,['Jenis Kebangsaan (T)'],None,3.179345,101.68916999999999
Sekolah Jenis Kebangsaan (Cina) Sentul,Primary,['Jenis Kebangsaan (C)'],primary,education,None,,None,Public School,None,None,['Jenis Kebangsaan (C)'],None,3.179826,101.693327
Sekolah Jenis Kebangsaan (Tamil) Sentul,Primary,['Jenis Kebangsaan (T)'],primary,education,None,,None,Public School,None,None,['Jenis Kebangsaan (T)'],None,3.17908,101.693
Sekolah Jenis Kebangsaan (Cina) Chi Man,Primary,['Jenis Kebangsaan (C)'],primary,education,None,,None,Public School,None,None,['Jenis Kebangsaan (C)'],None,3.185308,101.690673
Sekolah Menengah Kebangsaan (L) Methodist Sentul,Secondary,['SM Kebangsaan'],secondary,education,None,,None,Public School,None,None,['SM Kebangsaan'],None,3.17923,101.694
Sekolah Kebangsaan (L) Methodist Sentul,Primary,['Kebangsaan'],primary,education,None,,None,Public School,None,None,['Kebangsaan'],None,3.1786,101.694
Wesley Methodist School,Secondary,None,secondary,education,None,,None,Private School,None,None,None,Local Curriculum,3.1796,101.6948
Wesley Methodist International School Kuala Lumpur,Primary Secondary A-Levels,None,primary,education,None,,None,International School,None,None,None,British,3.1795791,101.69482690000001
Sekolah Menengah Kebangsaan Convent Sentul,Secondary,['SM Kebangsaan'],secondary,education,None,,None,Public School,None,None,['SM Kebangsaan'],None,3.18662,101.691
Sekolah Jenis Kebangsaan (Tamil) St. Joseph,Primary,['Jenis Kebangsaan (T)'],primary,education,None,,None,Public School,None,None,['Jenis Kebangsaan (T)'],None,3.186604,101.691351
Sekolah Kebangsaan Convent Sentul 1,Primary,['Kebangsaan'],primary,education,None,,None,Public School,None,None,['Kebangsaan'],None,3.18527,101.694
Sekolah Kebangsaan Convent Sentul 2,Primary,['Kebangsaan'],primary,education,None,,None,Public School,None,None,['Kebangsaan'],None,3.1855,101.694
Sekolah Kebangsaan Sentul Utama,Primary,['Kebangsaan'],primary,education,None,,None,Public School,None,None,['Kebangsaan'],None,3.17572,101.69
Sekolah Menengah Kebangsaan Sentul Utama,Secondary,['SM Kebangsaan'],secondary,education,None,,None,Public School,None,None,['SM Kebangsaan'],None,3.1756,101.691
Sekolah Kebangsaan Sri Dhandayuthapani,Primary,['Kebangsaan'],primary,education,None,,None,Public School,None,None,['Kebangsaan'],None,3.17593,101.68799999999999
Sekolah Kebangsaan Bandar Baru Sentul,Primary,['Kebangsaan'],primary,education,None,,None,Public School,None,None,['Kebangsaan'],None,3.1837,101.698
Sekolah Kebangsaan Seri Perak,Primary,['Kebangsaan'],primary,education,None,,None,Public School,None,None,['Kebangsaan'],None,3.1818299999999997,101.699
Sekolah Menengah Kebangsaan Bandar Baru Sentul,Secondary,['SM Kebangsaan'],secondary,education,None,,None,Public School,None,None,['SM Kebangsaan'],None,3.18398,101.699
ICOM - International College Of Music,Tertiary,None,tertiary,education,None,,None,Private College,None,None,None,None,3.1799150000000003,101.699726
Sekolah Jenis Kebangsaan (Cina) Chiao Nan,Primary,['Jenis Kebangsaan (C)'],primary,education,None,,None,Public School,None,None,['Jenis Kebangsaan (C)'],None,3.17889,101.7
Sekolah Menengah Kebangsaan Maxwell,Secondary,['SM Kebangsaan'],secondary,education,None,,None,Public School,None,None,['SM Kebangsaan'],None,3.171138482,101.69134759999999
AIMST University,Tertiary,None,tertiary,education,None,,None,Private University,None,None,None,None,3.170858,101.69225300000001
Sekolah Kebangsaan Sentul 2,Primary,['Kebangsaan'],primary,education,None,,None,Public School,None,None,['Kebangsaan'],None,3.19213,101.69
Sekolah Menengah Kebangsaan (P) Jalan Ipoh,Secondary,['SM Kebangsaan'],secondary,education,None,,None,Public School,None,None,['SM Kebangsaan'],None,3.18715,101.681
Sekolah Menengah Sains Seri Puteri,Secondary,['SM Berasrama Penuh'],secondary,education,None,,None,Public School,None,None,['SM Berasrama Penuh'],None,3.17042,101.68799999999999
Sekolah Kebangsaan Sentul 1,Primary,['Kebangsaan'],primary,education,None,,None,Public School,None,None,['Kebangsaan'],None,3.19275,101.69
Sekolah Jenis Kebangsaan (Cina) Chong Hwa,Primary,['Jenis Kebangsaan (C)'],primary,education,None,,None,Public School,None,None,['Jenis Kebangsaan (C)'],None,3.184815,101.701245
Universiti Islam Antarabangsa Malaysia (Uiam),Tertiary,['Public University'],tertiary,education,None,,None,Public University,None,None,['Public University'],None,3.183209,101.702321
Sekolah Kebangsaan Jalan Kuantan 2,Primary,['Kebangsaan'],primary,education,None,,None,Public School,None,None,['Kebangsaan'],None,3.17693,101.70200000000001
Sekolah Jenis Kebangsaan (Cina) Lai Chee,Primary,['Jenis Kebangsaan (C)'],primary,education,None,,None,Public School,None,None,['Jenis Kebangsaan (C)'],None,3.1908529999999997,101.682198
Sekolah Kebangsaan Jalan Kuantan 1,Primary,['Kebangsaan'],primary,education,None,,None,Public School,None,None,['Kebangsaan'],None,3.176803837,101.70244100000001
Young Aces Technical College,Tertiary,None,tertiary,education,None,,None,Private College,None,None,None,None,3.1897849999999996,101.67892900000001
Sekolah Jenis Kebangsaan (Cina) Sentul Pasar,Primary,['Jenis Kebangsaan (C)'],primary,education,None,,None,Public School,None,None,['Jenis Kebangsaan (C)'],None,3.1958889999999998,101.691213
Spectrum International Islamic School (SIIS),Preschool Primary Secondary,None,preschool,education,None,,None,None,None,None,None,Cambridge,3.1661286,101.6894473
Sekolah Kebangsaan Setapak,Primary,['Kebangsaan'],primary,education,None,,None,Public School,None,None,['Kebangsaan'],None,3.18647,101.705
Sekolah Bimbingan Jalinan Kasih,Secondary,['Sekolah Bimbingan'],secondary,education,None,,None,Public School,None,None,['Sekolah Bimbingan'],None,3.166811,101.700233
Sekolah Menengah Kebangsaan Seri Titiwangsa,Secondary,['SM Kebangsaan'],secondary,education,None,,None,Public School,None,None,['SM Kebangsaan'],None,3.173957,101.70662800000001
Sekolah Menengah Kebangsaan Puteri Titiwangsa,Secondary,['SM Kebangsaan'],secondary,education,None,,None,Public School,None,None,['SM Kebangsaan'],None,3.17373,101.70700000000001
UniKL - Universiti Kuala Lumpur,Tertiary,None,tertiary,education,None,,None,Private University,None,None,None,None,3.164882,101.701371
President's College,Tertiary,None,tertiary,education,None,,None,Private College,None,None,None,None,3.162137,101.695554
Sekolah Jenis Kebangsaan (Cina) Khai Chee,Primary,['Jenis Kebangsaan (C)'],primary,education,None,,None,Public School,None,None,['Jenis Kebangsaan (C)'],None,3.18574,101.67
International University of Malaya-Wales (IUMW),Tertiary,None,tertiary,education,None,,None,Private University,None,None,None,None,3.1603939999999997,101.691313
Sekolah Jenis Kebangsaan (Cina) Chung Kwok,Primary,['Jenis Kebangsaan (C)'],cluster,education,None,,None,Public School,None,None,['Jenis Kebangsaan (C)'],None,3.160577,101.693495
Sekolah Kebangsaan Jalan Raja Muda,Primary,['Kebangsaan'],primary,education,None,,None,Public School,None,None,['Kebangsaan'],None,3.16827,101.70700000000001
OUM - Open University Malaysia,Tertiary,None,tertiary,education,None,,None,Private University,None,None,None,None,3.1601310000000002,101.69098699999999
Sekolah Kebangsaan (L) Jalan Batu,Primary,['Kebangsaan'],primary,education,None,,None,Public School,None,None,['Kebangsaan'],None,3.16063,101.695
Sekolah Jenis Kebangsaan (Tamil) Fletcher,Primary,['Jenis Kebangsaan (T)'],primary,education,None,,None,Public School,None,None,['Jenis Kebangsaan (T)'],None,3.172214,101.709626
Sekolah Kebangsaan Pendidikan Khas Jln Batu,Primary,['Kebangsaan'],primary,education,None,,None,Public School,None,None,['Kebangsaan'],None,3.16038,101.695
Sekolah Kebangsaan (P) Jalan Batu,Primary,['Kebangsaan'],primary,education,None,,None,Public School,None,None,['Kebangsaan'],None,3.160247,101.695624
Sekolah Kebangsaan Kampung Bharu,Primary,['Kebangsaan'],primary,education,None,,None,Public School,None,None,['Kebangsaan'],None,3.16288,101.70200000000001
Sekolah Menengah Kebangsaan Puteri Wilayah,Secondary,['SM Kebangsaan'],secondary,education,None,,None,Public School,None,None,['SM Kebangsaan'],None,3.161924,101.700685
Sekolah Jenis Kebangsaan (Tamil) Appar,Primary,['Jenis Kebangsaan (T)'],primary,education,None,,None,Public School,None,None,['Jenis Kebangsaan (T)'],None,3.15941,101.694
Sekolah Kebangsaan Pendidikan Khas Kg Baharu,Primary,['Kebangsaan'],primary,education,None,,None,Public School,None,None,['Kebangsaan'],None,3.162038,101.702413
KLMUC - Kuala Lumpur Metropolitan University College,Tertiary,None,tertiary,education,None,,None,Private College,None,None,None,None,3.159008,101.695143
Kuala Lumpur Metropolitan University College (KLMUC),Tertiary,None,tertiary,education,None,,None,Private University College,None,None,None,None,3.1589560000000003,101.695194
Sekolah Menengah Kebangsaan Segambut,Secondary,['SM Kebangsaan'],secondary,education,None,,None,Public School,None,None,['SM Kebangsaan'],None,3.1870700000000003,101.66799999999999
Sekolah Menengah Kebangsaan Chong Hwa,Secondary,['SM Kebangsaan'],secondary,education,None,,None,Public School,None,None,['SM Kebangsaan'],None,3.199321,101.704957
Sekolah Kebangsaan Segambut,Primary,['Kebangsaan'],primary,education,None,,None,Public School,None,None,['Kebangsaan'],None,3.1876,101.66799999999999
Sekolah Jenis Kebangsaan (Cina) Mun Yee,Primary,['Jenis Kebangsaan (C)'],primary,education,None,,None,Public School,None,None,['Jenis Kebangsaan (C)'],None,3.196399,101.708431
Sekolah Menengah Kebangsaan Raja Ali,Secondary,['SM Kebangsaan'],secondary,education,None,,None,Public School,None,None,['SM Kebangsaan'],None,3.199631,101.674625
Brainy Bunch - Taman Pelangi Gombak,Elementary High Kindergarten,None,elementary,education,None,,None,Preschool,None,None,None,Montessori,3.205825,101.69036700000001
Sekolah Kebangsaan Kg Batu,Primary,['Kebangsaan'],primary,education,None,,None,Public School,None,None,['Kebangsaan'],None,3.20208,101.677
Sekolah Kebangsaan (2) Batu 4 Jalan Ipoh,Primary,['Kebangsaan'],primary,education,None,,None,Public School,None,None,['Kebangsaan'],None,3.20102,101.67399999999999
Sekolah Kebangsaan (1) Batu 4 Jalan Ipoh,Primary,['Kebangsaan'],primary,education,None,,None,Public School,None,None,['Kebangsaan'],None,3.20103,101.67399999999999
Sekolah Kebangsaan Jalan Air Panas,Primary,['Kebangsaan'],primary,education,None,,None,Public School,None,None,['Kebangsaan'],None,3.18967,101.715
Sekolah Menengah Kebangsaan Tinggi Setapak,Secondary,['SM Kebangsaan'],secondary,education,None,,None,Public School,None,None,['SM Kebangsaan'],None,3.186312272,101.71632259999998
Trinity Kids - Solaris Dutamas,Primary Preschool,None,primary,education,None,,None,Preschool,None,None,None,International,3.1708952,101.666093
Victoria International College,Tertiary,None,tertiary,education,None,,None,Private College,None,None,None,None,3.203773,101.675325
Klinik Kesihatan Sentul,Clinic,None,clinic,healthcare,None,,None,Government,Sentul,Kuala Lumpur,None,None,3.18367,101.69134
Sentul Medical Centre,Hospital,None,hospital,healthcare,None,,None,Private,None,None,None,None,3.1740535,101.69270159999999
Lourdes Medical Centre,Hospital,None,hospital,healthcare,None,,None,Private,None,None,None,None,3.1729713999999998,101.6911746
Chaudhury Medic Centre,Hospital,None,hospital,healthcare,None,,None,Private,None,None,None,None,3.1757,101.69676
Hospital Pakar KPJ Tawakkal (KPJ Tawakkal Specialist Hospital),Hospital,None,hospital,healthcare,None,,None,Private,None,None,None,None,3.1769611,101.6986695
Hospital Aman (M) Sdn. Bhd.,Hospital,None,hospital,healthcare,None,,None,Private,None,None,None,None,3.17163,101.6931892
Dato' Harnam E.N.T. Specialist Hospital Sdn. Bhd.,Hospital,None,hospital,healthcare,None,,None,Private,None,None,None,None,3.1707400000000003,101.69344009999999
Damai Service Hospital (H.Q.) Sdn. Bhd.,Hospital,None,hospital,healthcare,None,,None,Private,None,None,None,None,3.1701662,101.69507779999999
KPJ Sentosa KL Specialist Hospital,Hospital,None,hospital,healthcare,None,,None,Private,None,None,None,None,3.1707978999999997,101.6973483
Hospital Kuala Lumpur,Hospital,None,hospital,healthcare,None,,None,Government,Kuala Lumpur,Kuala Lumpur,None,None,3.171983,101.69981800000001
Al-Islam Specialist Hospital,Hospital,None,hospital,healthcare,None,,None,Private,None,None,None,None,3.1635649,101.7032048
Hospital Pusrawi Sdn. Bhd.,Hospital,None,hospital,healthcare,None,,None,Private,None,None,None,None,3.1713829,101.71010390000001
Institut Jantung Negara,Hospital,None,hospital,healthcare,None,,None,Private,None,None,None,None,3.170488,101.70989
Klinik Kesihatan Batu,Clinic,None,clinic,healthcare,None,,None,Government,Kuala Lumpur,Kuala Lumpur,None,None,3.200758,101.676703
Klinik Sarmukh Dan Pusat Bersalin,Hospital,None,hospital,healthcare,None,,None,Private,None,None,None,None,3.1939900000000003,101.71135009999999
Sentul,KTM Komuter,None,ktm komuter,transportation,KTM Seremban Line,,1995,None,None,None,None,None,3.182625,101.688819
Sentul West,MRT,None,mrt,transportation,MRT Sungai Buloh-Serdang-Putrajaya Line,,2022,None,None,None,None,None,3.178682,101.685436
Sentul,LRT,None,lrt,transportation,LRT Ampang Line | LRT Sri Petaling Line,,1998,None,None,None,None,None,3.1784675,101.6955325
Sentul Timur,LRT,None,lrt,transportation,LRT Ampang Line | LRT Sri Petaling Line,,1998,None,None,None,None,None,3.1858559,101.6953546
Titiwangsa,MRT,None,mrt,transportation,MRT Sungai Buloh-Serdang-Putrajaya Line,,2022,None,None,None,None,None,3.174771,101.696166
Titiwangsa,LRT,None,lrt,transportation,LRT Ampang Line | LRT Sri Petaling Line,,1998,None,None,None,None,None,3.1735078999999997,101.69531009999999
